$GNRMC,125351.00,A,4713.40016,N,00849.09487,E,0.012,,020319,,,A*60
$GNVTG,,T,,M,0.012,N,0.022,K,A*3E
$GNGGA,125351.00,4713.40016,N,00849.09487,E,1,12,0.89,448.5,M,47.4,M,,*4E
$GNGSA,A,3,24,15,19,12,17,13,10,,,,,,1.95,0.89,1.74*1E
$GNGSA,A,3,75,66,65,76,85,,,,,,,,1.95,0.89,1.74*1F
$GPGSV,3,1,10,01,02,021,,10,19,300,45,12,41,231,46,13,28,153,30*79
$GPGSV,3,2,10,15,51,190,47,17,37,065,44,19,44,101,42,20,15,272,*7C
$GPGSV,3,3,10,24,73,307,44,25,07,235,25*7D
$GLGSV,3,1,09,65,40,226,31,66,37,312,32,67,00,346,,72,09,190,15*68
$GLGSV,3,2,09,74,31,062,18,75,68,337,37,76,34,278,28,84,31,063,*64
$GLGSV,3,3,09,85,21,123,25*55
$GNGLL,4713.40016,N,00849.09487,E,125351.00,A,A*73
$GNRMC,125352.00,A,4713.40016,N,00849.09481,E,0.018,,020319,,,A*6F
$GNVTG,,T,,M,0.018,N,0.033,K,A*34
$GNGGA,125352.00,4713.40016,N,00849.09481,E,1,12,0.84,448.5,M,47.4,M,,*46
$GNGSA,A,3,24,15,19,12,17,13,10,,,,,,1.77,0.84,1.55*1C
$GNGSA,A,3,75,66,65,76,85,,,,,,,,1.77,0.84,1.55*1D
$GPGSV,3,1,10,01,02,021,,10,19,300,45,12,41,231,46,13,28,153,30*79
$GPGSV,3,2,10,15,51,190,47,17,37,065,44,19,44,101,42,20,15,272,*7C
$GPGSV,3,3,10,24,73,307,44,25,07,235,25*7D
$GLGSV,3,1,09,65,40,226,31,66,37,312,32,67,00,346,,72,09,190,*6C
$GLGSV,3,2,09,74,31,062,,75,68,337,37,76,34,278,28,84,31,063,*6D
$GLGSV,3,3,09,85,21,123,24*54
$GNGLL,4713.40016,N,00849.09481,E,125352.00,A,A*76
$GNRMC,125353.00,A,4713.40015,N,00849.09475,E,0.016,,020319,,,A*68
$GNVTG,,T,,M,0.016,N,0.030,K,A*39
$GNGGA,125353.00,4713.40015,N,00849.09475,E,1,12,0.84,448.5,M,47.4,M,,*4F
$GNGSA,A,3,24,15,19,12,17,13,10,,,,,,1.77,0.84,1.55*1C
$GNGSA,A,3,75,66,65,76,85,,,,,,,,1.77,0.84,1.55*1D
$GPGSV,3,1,10,01,02,021,,10,19,300,45,12,41,231,46,13,28,153,29*71
$GPGSV,3,2,10,15,51,190,47,17,37,065,44,19,44,101,42,20,15,272,*7C
$GPGSV,3,3,10,24,73,307,44,25,07,235,25*7D
$GLGSV,3,1,09,65,40,226,31,66,37,312,32,67,00,346,,72,09,190,*6C
$GLGSV,3,2,09,74,31,062,23,75,68,337,37,76,34,278,28,84,31,063,*6C
$GLGSV,3,3,09,85,21,123,24*54
$GNGLL,4713.40015,N,00849.09475,E,125353.00,A,A*7F
$GNRMC,125354.00,A,4713.40014,N,00849.09469,E,0.014,,020319,,,A*61
$GNVTG,,T,,M,0.014,N,0.025,K,A*3F
$GNGGA,125354.00,4713.40014,N,00849.09469,E,1,12,0.84,448.6,M,47.4,M,,*47
$GNGSA,A,3,24,15,19,12,17,13,10,,,,,,1.77,0.84,1.55*1C
$GNGSA,A,3,75,66,65,76,85,,,,,,,,1.77,0.84,1.55*1D
$GPGSV,3,1,10,01,02,021,,10,19,300,45,12,41,231,46,13,28,153,29*71
$GPGSV,3,2,10,15,51,190,47,17,37,065,44,19,44,101,43,20,15,272,*7D
$GPGSV,3,3,10,24,73,307,44,25,07,235,25*7D
$GLGSV,3,1,09,65,40,226,31,66,37,312,32,67,00,346,,72,09,190,*6C
$GLGSV,3,2,09,74,31,062,23,75,68,337,37,76,34,278,28,84,31,063,*6C
$GLGSV,3,3,09,85,21,123,23*53
$GNGLL,4713.40014,N,00849.09469,E,125354.00,A,A*74
$GNRMC,125355.00,A,4713.40012,N,00849.09463,E,0.008,,020319,,,A*61
$GNVTG,,T,,M,0.008,N,0.015,K,A*31
$GNGGA,125355.00,4713.40012,N,00849.09463,E,1,12,0.89,448.6,M,47.4,M,,*47
$GNGSA,A,3,24,15,19,12,17,13,10,,,,,,1.95,0.89,1.74*1E
$GNGSA,A,3,75,66,65,76,85,,,,,,,,1.95,0.89,1.74*1F
$GPGSV,3,1,10,01,02,021,,10,19,300,45,12,41,231,46,13,28,153,29*71
$GPGSV,3,2,10,15,51,190,47,17,37,065,44,19,44,101,43,20,15,272,*7D
$GPGSV,3,3,10,24,73,307,44,25,07,235,25*7D
$GLGSV,3,1,09,65,40,226,31,66,37,312,32,67,00,346,,72,09,190,*6C
$GLGSV,3,2,09,74,31,062,23,75,68,337,37,76,34,278,28,84,31,063,*6C
$GLGSV,3,3,09,85,21,123,24*54
$GNGLL,4713.40012,N,00849.09463,E,125355.00,A,A*79
$GNRMC,125356.00,A,4713.40011,N,00849.09458,E,0.013,,020319,,,A*63
$GNVTG,,T,,M,0.013,N,0.024,K,A*39
$GNGGA,125356.00,4713.40011,N,00849.09458,E,1,12,0.89,448.5,M,47.4,M,,*4C
$GNGSA,A,3,24,15,19,12,17,13,10,,,,,,1.95,0.89,1.74*1E
$GNGSA,A,3,75,66,65,76,85,,,,,,,,1.95,0.89,1.74*1F
$GPGSV,3,1,10,01,02,021,,10,19,300,45,12,41,231,47,13,28,153,28*71
$GPGSV,3,2,10,15,51,190,47,17,37,065,44,19,44,101,43,20,15,272,*7D
$GPGSV,3,3,10,24,73,307,44,25,07,235,25*7D
$GLGSV,3,1,09,65,40,226,31,66,37,312,32,67,00,346,,72,09,190,*6C
$GLGSV,3,2,09,74,31,062,21,75,68,337,37,76,34,278,28,84,31,063,*6E
$GLGSV,3,3,09,85,21,123,24*54
$GNGLL,4713.40011,N,00849.09458,E,125356.00,A,A*71
$GNRMC,125357.00,A,4713.40012,N,00849.09452,E,0.006,,020319,,,A*6F
$GNVTG,,T,,M,0.006,N,0.011,K,A*3B
$GNGGA,125357.00,4713.40012,N,00849.09452,E,1,12,0.84,448.6,M,47.4,M,,*4A
$GNGSA,A,3,24,15,19,12,17,13,10,,,,,,1.77,0.84,1.55*1C
$GNGSA,A,3,75,66,65,76,85,,,,,,,,1.77,0.84,1.55*1D
$GPGSV,3,1,10,01,02,021,,10,19,300,45,12,41,231,47,13,28,153,19*73
$GPGSV,3,2,10,15,51,190,45,17,37,065,45,19,44,101,40,20,15,272,*7D
$GPGSV,3,3,10,24,73,307,46,25,07,235,25*7F
$GLGSV,3,1,09,65,40,226,32,66,37,312,33,67,00,346,,72,09,190,*6E
$GLGSV,3,2,09,74,31,062,18,75,68,337,41,76,34,278,28,84,31,063,*65
$GLGSV,3,3,09,85,21,123,24*54
$GNGLL,4713.40012,N,00849.09452,E,125357.00,A,A*79
$GNRMC,125358.00,A,4713.40013,N,00849.09447,E,0.028,,020319,,,A*69
$GNVTG,,T,,M,0.028,N,0.051,K,A*33
$GNGGA,125358.00,4713.40013,N,00849.09447,E,1,11,0.90,448.7,M,47.4,M,,*47
$GNGSA,A,3,24,15,19,12,17,10,,,,,,,1.83,0.90,1.59*1C
$GNGSA,A,3,75,66,65,76,85,,,,,,,,1.83,0.90,1.59*1F
$GPGSV,3,1,10,01,02,021,,10,19,300,41,12,41,231,50,13,28,153,*79
$GPGSV,3,2,10,15,51,190,46,17,37,065,47,19,44,101,45,20,15,272,*79
$GPGSV,3,3,10,24,73,307,45,25,07,235,25*7C
$GLGSV,3,1,09,65,40,226,34,66,37,312,34,67,00,346,,72,09,190,*6F
$GLGSV,3,2,09,74,31,062,19,75,68,337,42,76,34,278,29,84,31,063,23*67
$GLGSV,3,3,09,85,21,123,31*50
$GNGLL,4713.40013,N,00849.09447,E,125358.00,A,A*73
$GNRMC,125359.00,A,4713.40025,N,00849.09439,E,0.073,,020319,,,A*6A
$GNVTG,,T,,M,0.073,N,0.135,K,A*3E
$GNGGA,125359.00,4713.40025,N,00849.09439,E,1,11,0.90,448.7,M,47.4,M,,*4A
$GNGSA,A,3,24,15,19,12,17,10,,,,,,,1.83,0.90,1.59*1C
$GNGSA,A,3,75,66,65,76,85,,,,,,,,1.83,0.90,1.59*1F
$GPGSV,3,1,10,01,02,021,,10,19,300,43,12,41,231,49,13,28,153,25*74
$GPGSV,3,2,10,15,51,190,49,17,37,065,47,19,44,101,44,20,15,272,*77
$GPGSV,3,3,10,24,73,307,46,25,07,235,24*7E
$GLGSV,3,1,09,65,40,226,35,66,37,312,40,67,00,346,,72,09,190,25*6A
$GLGSV,3,2,09,74,31,062,29,75,68,337,42,76,34,278,33,84,31,063,23*6F
$GLGSV,3,3,09,85,21,123,29*59
$GNGLL,4713.40025,N,00849.09439,E,125359.00,A,A*7E
$GNRMC,125400.00,A,4713.40034,N,00849.09433,E,0.038,,020319,,,A*64
$GNVTG,,T,,M,0.038,N,0.070,K,A*31
$GNGGA,125400.00,4713.40034,N,00849.09433,E,1,12,0.84,448.7,M,47.4,M,,*4D
$GNGSA,A,3,24,15,19,12,17,13,10,,,,,,1.77,0.84,1.55*1C
$GNGSA,A,3,75,66,65,76,85,,,,,,,,1.77,0.84,1.55*1D
$GPGSV,3,1,10,01,02,021,,10,19,300,46,12,41,231,50,13,28,153,26*7A
$GPGSV,3,2,10,15,51,190,49,17,37,065,47,19,44,101,44,20,15,272,*77
$GPGSV,3,3,10,24,73,307,46,25,07,235,24*7E
$GLGSV,3,1,10,65,40,226,35,66,37,312,42,67,00,346,,72,09,190,25*60
$GLGSV,3,2,10,74,31,062,21,75,68,337,42,76,34,278,37,84,31,063,22*6A
$GLGSV,3,3,10,85,21,123,30,,,,40*5D
$GNGLL,4713.40034,N,00849.09433,E,125400.00,A,A*7F
$GNRMC,125401.00,A,4713.40045,N,00849.09426,E,0.025,,020319,,,A*6B
$GNVTG,,T,,M,0.025,N,0.047,K,A*39
$GNGGA,125401.00,4713.40045,N,00849.09426,E,1,12,0.84,448.7,M,47.4,M,,*4E
$GNGSA,A,3,24,15,19,12,17,13,10,,,,,,1.77,0.84,1.55*1C
$GNGSA,A,3,75,66,65,76,85,,,,,,,,1.77,0.84,1.55*1D
$GPGSV,3,1,11,01,02,021,,10,19,300,45,12,41,231,50,13,28,153,25*7B
$GPGSV,3,2,11,15,51,190,48,17,37,065,47,19,44,101,43,20,15,272,*70
$GPGSV,3,3,11,24,73,307,47,25,07,235,22,27,,,29*76
$GLGSV,3,1,10,65,40,226,36,66,37,312,41,67,00,346,,72,09,190,25*60
$GLGSV,3,2,10,74,31,062,24,75,68,337,41,76,34,278,35,84,31,063,21*6D
$GLGSV,3,3,10,85,21,123,31,,,,39*52
$GNGLL,4713.40045,N,00849.09426,E,125401.00,A,A*7C
$GNRMC,125402.00,A,4713.40055,N,00849.09420,E,0.014,,020319,,,A*6D
$GNVTG,,T,,M,0.014,N,0.025,K,A*3F
$GNGGA,125402.00,4713.40055,N,00849.09420,E,1,12,0.84,448.7,M,47.4,M,,*4A
$GNGSA,A,3,24,15,19,12,17,13,10,,,,,,1.77,0.84,1.55*1C
$GNGSA,A,3,75,66,65,76,85,,,,,,,,1.77,0.84,1.55*1D
$GPGSV,3,1,10,01,02,021,,10,19,300,45,12,41,231,48,13,28,153,25*73
$GPGSV,3,2,10,15,51,190,48,17,37,065,46,19,44,101,44,20,15,272,*77
$GPGSV,3,3,10,24,73,307,45,25,07,235,20*79
$GLGSV,3,1,10,65,40,226,36,66,37,312,40,67,00,346,,72,09,190,26*62
$GLGSV,3,2,10,74,31,062,24,75,68,337,42,76,34,278,34,84,31,063,20*6E
$GLGSV,3,3,10,85,21,123,30,,,,38*52
$GNGLL,4713.40055,N,00849.09420,E,125402.00,A,A*78
$GNRMC,125403.00,A,4713.40064,N,00849.09414,E,0.019,,020319,,,A*64
$GNVTG,,T,,M,0.019,N,0.035,K,A*33
$GNGGA,125403.00,4713.40064,N,00849.09414,E,1,12,0.84,448.6,M,47.4,M,,*4F
$GNGSA,A,3,24,15,19,12,17,13,10,,,,,,1.77,0.84,1.55*1C
$GNGSA,A,3,75,66,65,76,85,,,,,,,,1.77,0.84,1.55*1D
$GPGSV,3,1,10,01,02,021,,10,19,300,45,12,41,231,49,13,28,153,27*70
$GPGSV,3,2,10,15,51,190,48,17,37,065,46,19,44,101,44,20,15,272,*77
$GPGSV,3,3,10,24,73,307,45,25,07,235,19*73
$GLGSV,3,1,10,65,40,226,35,66,38,311,40,67,00,346,,72,09,190,26*6D
$GLGSV,3,2,10,74,31,062,25,75,68,337,41,76,34,278,34,84,31,063,20*6C
$GLGSV,3,3,10,85,21,123,29,,,,37*55
$GNGLL,4713.40064,N,00849.09414,E,125403.00,A,A*7C
$GNRMC,125404.00,A,4713.40073,N,00849.09407,E,0.003,,020319,,,A*6C
$GNVTG,,T,,M,0.003,N,0.006,K,A*38
$GNGGA,125404.00,4713.40073,N,00849.09407,E,1,12,0.84,448.6,M,47.4,M,,*4C
$GNGSA,A,3,24,15,19,12,17,13,10,,,,,,1.77,0.84,1.55*1C
$GNGSA,A,3,75,66,65,76,85,,,,,,,,1.77,0.84,1.55*1D
$GPGSV,3,1,10,01,02,021,,10,19,300,45,12,41,231,49,13,28,153,27*70
$GPGSV,3,2,10,15,51,190,48,17,37,065,46,19,44,101,44,20,15,272,*77
$GPGSV,3,3,10,24,73,307,46,25,07,235,19*70
$GLGSV,3,1,10,65,40,226,35,66,38,311,40,67,00,346,,72,09,190,27*6C
$GLGSV,3,2,10,74,31,062,27,75,68,337,40,76,34,278,33,84,31,063,21*69
$GLGSV,3,3,10,85,21,123,28,,,,37*54
$GNGLL,4713.40073,N,00849.09407,E,125404.00,A,A*7F
$GNRMC,125405.00,A,4713.40080,N,00849.09404,E,0.012,,020319,,,A*62
$GNVTG,,T,,M,0.012,N,0.023,K,A*3F
$GNGGA,125405.00,4713.40080,N,00849.09404,E,1,12,0.84,448.5,M,47.4,M,,*41
$GNGSA,A,3,24,15,19,12,17,13,10,,,,,,1.77,0.84,1.55*1C
$GNGSA,A,3,75,66,65,76,85,,,,,,,,1.77,0.84,1.55*1D
$GPGSV,3,1,10,01,02,021,,10,19,300,43,12,41,231,47,13,28,153,27*78
$GPGSV,3,2,10,15,51,190,46,17,37,065,45,19,44,101,43,20,15,272,*7D
$GPGSV,3,3,10,24,73,307,44,25,07,235,20*78
$GLGSV,3,1,10,65,40,226,35,66,38,311,40,67,00,346,,72,09,190,27*6C
$GLGSV,3,2,10,74,31,062,28,75,68,337,40,76,34,278,33,84,31,063,21*66
$GLGSV,3,3,10,85,21,123,27,,,,37*5B
$GNGLL,4713.40080,N,00849.09404,E,125405.00,A,A*71
$GNRMC,125406.00,A,4713.40087,N,00849.09400,E,0.011,,020319,,,A*61
$GNVTG,,T,,M,0.011,N,0.021,K,A*3E
$GNGGA,125406.00,4713.40087,N,00849.09400,E,1,12,0.84,448.4,M,47.4,M,,*40
$GNGSA,A,3,24,15,19,12,17,13,10,,,,,,1.77,0.84,1.55*1C
$GNGSA,A,3,75,66,65,76,85,,,,,,,,1.77,0.84,1.55*1D
$GPGSV,3,1,10,01,02,021,,10,19,300,43,12,41,231,47,13,28,153,26*79
$GPGSV,3,2,10,15,51,190,46,17,37,065,45,19,44,101,43,20,15,272,*7D
$GPGSV,3,3,10,24,73,307,44,25,07,235,20*78
$GLGSV,3,1,10,65,40,226,35,66,38,311,40,67,00,346,,72,09,190,27*6C
$GLGSV,3,2,10,74,31,062,28,75,68,337,40,76,34,278,32,84,31,063,20*66
$GLGSV,3,3,10,85,21,123,26,,,,37*5A
$GNGLL,4713.40087,N,00849.09400,E,125406.00,A,A*71
$GNRMC,125407.00,A,4713.40094,N,00849.09396,E,0.026,,020319,,,A*6E
$GNVTG,,T,,M,0.026,N,0.049,K,A*34
$GNGGA,125407.00,4713.40094,N,00849.09396,E,1,12,0.84,448.4,M,47.4,M,,*4B
$GNGSA,A,3,24,15,19,12,17,13,10,,,,,,1.77,0.84,1.55*1C
$GNGSA,A,3,75,66,65,76,85,,,,,,,,1.77,0.84,1.55*1D
$GPGSV,3,1,10,01,02,021,,10,19,300,46,12,41,231,49,13,28,153,25*71
$GPGSV,3,2,10,15,51,190,48,17,37,065,46,19,44,101,44,20,15,272,*77
$GPGSV,3,3,10,24,73,307,46,25,07,235,20*7A
$GLGSV,3,1,10,65,40,226,34,66,38,311,40,67,00,346,,72,09,190,26*6C
$GLGSV,3,2,10,74,31,062,27,75,68,337,40,76,34,278,31,84,31,063,22*68
$GLGSV,3,3,10,85,21,123,25,,,,37*59
$GNGLL,4713.40094,N,00849.09396,E,125407.00,A,A*7A
$GNRMC,125408.00,A,4713.40100,N,00849.09392,E,0.002,,020319,,,A*6F
$GNVTG,,T,,M,0.002,N,0.004,K,A*3B
$GNGGA,125408.00,4713.40100,N,00849.09392,E,1,12,0.84,448.3,M,47.4,M,,*4B
$GNGSA,A,3,24,15,19,12,17,13,10,,,,,,1.77,0.84,1.55*1C
$GNGSA,A,3,75,66,65,76,85,,,,,,,,1.77,0.84,1.55*1D
$GPGSV,3,1,10,01,02,021,,10,19,300,44,12,41,231,48,13,28,153,25*72
$GPGSV,3,2,10,15,51,190,48,17,37,065,46,19,44,101,45,20,15,272,*76
$GPGSV,3,3,10,24,73,307,46,25,07,235,22*78
$GLGSV,3,1,10,65,40,226,34,66,38,311,40,67,00,346,,72,09,190,26*6C
$GLGSV,3,2,10,74,31,062,27,75,68,337,41,76,34,278,31,84,31,063,21*6A
$GLGSV,3,3,10,85,21,123,25,,,,37*59
$GNGLL,4713.40100,N,00849.09392,E,125408.00,A,A*7D
$GNRMC,125409.00,A,4713.40106,N,00849.09388,E,0.016,,020319,,,A*66
$GNVTG,,T,,M,0.016,N,0.030,K,A*39
$GNGGA,125409.00,4713.40106,N,00849.09388,E,1,12,0.84,448.2,M,47.4,M,,*46
$GNGSA,A,3,24,15,19,12,17,13,10,,,,,,1.77,0.84,1.55*1C
$GNGSA,A,3,75,66,65,76,85,,,,,,,,1.77,0.84,1.55*1D
$GPGSV,3,1,10,01,02,021,,10,19,300,43,12,41,231,47,13,28,153,23*7C
$GPGSV,3,2,10,15,51,190,46,17,37,065,45,19,44,101,43,20,15,272,*7D
$GPGSV,3,3,10,24,73,307,45,25,07,235,22*7B
$GLGSV,3,1,09,65,40,226,34,66,38,311,40,67,00,346,,72,09,190,26*64
$GLGSV,3,2,09,74,31,062,28,75,68,337,40,76,34,278,30,84,31,063,21*6D
$GLGSV,3,3,09,85,21,123,26*56
$GNGLL,4713.40106,N,00849.09388,E,125409.00,A,A*71
$GNRMC,125410.00,A,4713.40110,N,00849.09385,E,0.009,,020319,,,A*6A
$GNVTG,,T,,M,0.009,N,0.016,K,A*33
$GNGGA,125410.00,4713.40110,N,00849.09385,E,1,12,0.84,448.1,M,47.4,M,,*47
$GNGSA,A,3,24,15,19,12,17,13,10,,,,,,1.77,0.84,1.55*1C
$GNGSA,A,3,75,66,65,76,85,,,,,,,,1.77,0.84,1.55*1D
$GPGSV,3,1,10,01,02,021,,10,19,300,45,12,41,231,49,13,28,153,23*74
$GPGSV,3,2,10,15,51,190,49,17,37,065,46,19,44,101,44,20,15,272,27*73
$GPGSV,3,3,10,24,73,307,46,25,07,235,23*79
$GLGSV,3,1,10,65,40,226,34,66,38,311,40,67,00,346,,72,09,190,25*6F
$GLGSV,3,2,10,74,31,062,28,75,68,337,40,76,34,278,30,84,31,063,20*64
$GLGSV,3,3,10,85,21,123,26,,,,37*5A
$GNGLL,4713.40110,N,00849.09385,E,125410.00,A,A*73
$GNRMC,125411.00,A,4713.40114,N,00849.09382,E,0.007,,020319,,,A*66
$GNVTG,,T,,M,0.007,N,0.013,K,A*38
$GNGGA,125411.00,4713.40114,N,00849.09382,E,1,12,0.84,448.0,M,47.4,M,,*44
$GNGSA,A,3,24,15,19,12,17,13,10,,,,,,1.77,0.84,1.55*1C
$GNGSA,A,3,75,66,65,76,85,,,,,,,,1.77,0.84,1.55*1D
$GPGSV,3,1,10,01,02,021,,10,19,300,44,12,41,231,49,13,28,153,23*75
$GPGSV,3,2,10,15,51,190,48,17,37,065,47,19,44,101,44,20,15,272,*76
$GPGSV,3,3,10,24,73,307,46,25,07,235,24*7E
$GLGSV,3,1,10,65,40,226,33,66,38,311,40,67,00,346,,72,09,190,25*68
$GLGSV,3,2,10,74,31,062,29,75,68,337,40,76,34,278,29,84,31,063,20*6D
$GLGSV,3,3,10,85,21,123,27,,,,37*5B
$GNGLL,4713.40114,N,00849.09382,E,125411.00,A,A*71
$GNRMC,125412.00,A,4713.40117,N,00849.09381,E,0.020,,020319,,,A*60
$GNVTG,,T,,M,0.020,N,0.038,K,A*34
$GNGGA,125412.00,4713.40117,N,00849.09381,E,1,12,0.84,447.8,M,47.4,M,,*40
$GNGSA,A,3,24,15,19,12,17,13,10,,,,,,1.77,0.84,1.55*1C
$GNGSA,A,3,75,66,65,76,85,,,,,,,,1.77,0.84,1.55*1D
$GPGSV,3,1,10,01,02,021,,10,19,300,43,12,41,231,49,13,28,153,22*73
$GPGSV,3,2,10,15,51,190,48,17,37,065,46,19,44,101,44,20,15,272,26*73
$GPGSV,3,3,10,24,73,307,46,25,07,235,24*7E
$GLGSV,3,1,10,65,40,226,33,66,38,311,40,67,00,346,,72,09,190,24*69
$GLGSV,3,2,10,74,31,062,29,75,68,339,41,76,34,278,29,84,31,063,19*68
$GLGSV,3,3,10,85,21,123,28,,,,36*55
$GNGLL,4713.40117,N,00849.09381,E,125412.00,A,A*72
$GNRMC,125413.00,A,4713.40119,N,00849.09380,E,0.013,,020319,,,A*6E
$GNVTG,,T,,M,0.013,N,0.024,K,A*39
$GNGGA,125413.00,4713.40119,N,00849.09380,E,1,12,0.82,447.6,M,47.4,M,,*46
$GNGSA,A,3,24,15,19,12,17,13,10,20,,,,,1.60,0.82,1.37*1A
$GNGSA,A,3,75,66,65,76,85,,,,,,,,1.60,0.82,1.37*19
$GPGSV,3,1,10,01,02,021,,10,19,300,43,12,41,231,49,13,28,153,20*71
$GPGSV,3,2,10,15,51,190,49,17,37,065,46,19,44,101,44,20,15,272,25*71
$GPGSV,3,3,10,24,73,307,46,25,07,235,25*7F
$GLGSV,3,1,10,65,40,226,32,66,38,311,40,67,00,346,,72,09,190,24*68
$GLGSV,3,2,10,74,31,062,30,75,68,339,41,76,34,279,29,84,31,063,19*61
$GLGSV,3,3,10,85,21,123,28,,,,36*55
$GNGLL,4713.40119,N,00849.09380,E,125413.00,A,A*7C
$GNRMC,125414.00,A,4713.40121,N,00849.09380,E,0.008,,020319,,,A*68
$GNVTG,,T,,M,0.008,N,0.015,K,A*31
$GNGGA,125414.00,4713.40121,N,00849.09380,E,1,12,0.82,447.5,M,47.4,M,,*49
$GNGSA,A,3,24,15,19,12,17,13,10,20,,,,,1.60,0.82,1.37*1A
$GNGSA,A,3,75,66,65,76,85,,,,,,,,1.60,0.82,1.37*19
$GPGSV,3,1,10,01,02,021,,10,19,300,43,12,41,231,49,13,28,153,17*75
$GPGSV,3,2,10,15,51,190,49,17,37,065,45,19,44,101,44,20,15,272,25*72
$GPGSV,3,3,10,24,73,307,46,25,07,235,25*7F
$GLGSV,3,1,10,65,40,226,32,66,38,311,40,67,00,346,,72,09,190,24*68
$GLGSV,3,2,10,74,31,062,31,75,68,339,40,76,34,279,28,84,31,063,19*60
$GLGSV,3,3,10,85,21,123,29,,,,36*54
$GNGLL,4713.40121,N,00849.09380,E,125414.00,A,A*70
$GNRMC,125415.00,A,4713.40123,N,00849.09380,E,0.004,,020319,,,A*67
$GNVTG,,T,,M,0.004,N,0.007,K,A*3E
$GNGGA,125415.00,4713.40123,N,00849.09380,E,1,12,0.82,447.3,M,47.4,M,,*4C
$GNGSA,A,3,24,15,19,12,17,13,10,20,,,,,1.60,0.82,1.37*1A
$GNGSA,A,3,75,66,65,76,85,,,,,,,,1.60,0.82,1.37*19
$GPGSV,3,1,10,01,02,021,,10,19,300,44,12,41,231,49,13,28,153,16*73
$GPGSV,3,2,10,15,51,190,48,17,37,065,46,19,44,101,44,20,15,272,25*70
$GPGSV,3,3,10,24,73,307,46,25,07,235,25*7F
$GLGSV,3,1,10,65,40,226,32,66,38,311,40,67,00,346,,72,09,190,23*6F
$GLGSV,3,2,10,74,31,062,30,75,68,339,40,76,34,279,29,84,31,063,19*60
$GLGSV,3,3,10,85,21,123,29,,,,36*54
$GNGLL,4713.40123,N,00849.09380,E,125415.00,A,A*73
$GNRMC,125416.00,A,4713.40125,N,00849.09381,E,0.004,,020319,,,A*63
$GNVTG,,T,,M,0.004,N,0.007,K,A*3E
$GNGGA,125416.00,4713.40125,N,00849.09381,E,1,12,0.82,447.2,M,47.4,M,,*49
$GNGSA,A,3,24,15,19,12,17,13,10,20,,,,,1.60,0.82,1.37*1A
$GNGSA,A,3,75,66,65,76,85,,,,,,,,1.60,0.82,1.37*19
$GPGSV,3,1,10,01,02,021,,10,19,300,44,12,41,231,49,13,28,153,16*73
$GPGSV,3,2,10,15,51,190,49,17,37,065,46,19,44,101,44,20,15,272,26*72
$GPGSV,3,3,10,24,73,307,46,25,07,235,25*7F
$GLGSV,3,1,10,65,40,226,32,66,38,311,40,67,00,346,,72,09,190,23*6F
$GLGSV,3,2,10,74,31,062,30,75,68,339,40,76,34,279,28,84,31,063,19*61
$GLGSV,3,3,10,85,21,123,29,,,,36*54
$GNGLL,4713.40125,N,00849.09381,E,125416.00,A,A*77
$GNRMC,125417.00,A,4713.40126,N,00849.09383,E,0.011,,020319,,,A*67
$GNVTG,,T,,M,0.011,N,0.020,K,A*3F
$GNGGA,125417.00,4713.40126,N,00849.09383,E,1,12,0.88,447.0,M,47.4,M,,*41
$GNGSA,A,3,24,15,19,12,17,13,10,20,,,,,1.66,0.88,1.40*16
$GNGSA,A,3,75,66,65,76,85,,,,,,,,1.66,0.88,1.40*15
$GPGSV,3,1,10,01,02,021,,10,19,300,44,12,41,231,49,13,28,153,17*72
$GPGSV,3,2,10,15,51,190,49,17,37,065,46,19,44,101,44,20,15,272,27*73
$GPGSV,3,3,10,24,73,307,46,25,07,235,25*7F
$GLGSV,3,1,10,65,40,226,31,66,38,311,39,67,00,346,,72,09,190,22*63
$GLGSV,3,2,10,74,31,062,30,75,68,339,39,76,34,279,28,84,31,063,18*6E
$GLGSV,3,3,10,85,21,123,28,,,,35*56
$GNGLL,4713.40126,N,00849.09383,E,125417.00,A,A*77
$GNRMC,125418.00,A,4713.40127,N,00849.09384,E,0.010,,020319,,,A*6F
$GNVTG,,T,,M,0.010,N,0.018,K,A*35
$GNGGA,125418.00,4713.40127,N,00849.09384,E,1,12,0.88,446.9,M,47.4,M,,*40
$GNGSA,A,3,24,15,19,12,17,13,10,20,,,,,1.66,0.88,1.41*17
$GNGSA,A,3,75,66,65,76,85,,,,,,,,1.66,0.88,1.41*14
$GPGSV,3,1,10,01,02,021,,10,19,300,44,12,41,231,49,13,28,153,18*7D
$GPGSV,3,2,10,15,51,190,48,17,37,065,46,19,44,101,44,20,15,272,28*7D
$GPGSV,3,3,10,24,73,307,46,25,07,235,25*7F
$GLGSV,3,1,10,65,40,226,31,66,38,311,39,67,00,346,,72,09,190,21*60
$GLGSV,3,2,10,74,31,062,30,75,68,339,38,76,34,279,27,84,31,063,18*60
$GLGSV,3,3,10,85,21,123,28,,,,35*56
$GNGLL,4713.40127,N,00849.09384,E,125418.00,A,A*7E
$GNRMC,125419.00,A,4713.40128,N,00849.09386,E,0.009,,020319,,,A*6B
$GNVTG,,T,,M,0.009,N,0.016,K,A*33
$GNGGA,125419.00,4713.40128,N,00849.09386,E,1,12,0.88,446.8,M,47.4,M,,*4D
$GNGSA,A,3,24,15,19,12,17,13,10,20,,,,,1.66,0.88,1.41*17
$GNGSA,A,3,75,66,65,76,85,,,,,,,,1.66,0.88,1.41*14
$GPGSV,3,1,10,01,02,021,,10,19,300,44,12,41,231,49,13,28,153,18*7D
$GPGSV,3,2,10,15,51,190,48,17,37,065,46,19,44,101,44,20,15,272,28*7D
$GPGSV,3,3,10,24,73,307,46,25,07,235,25*7F
$GLGSV,3,1,10,65,40,226,32,66,38,311,39,67,00,346,,72,09,190,20*62
$GLGSV,3,2,10,74,31,062,30,75,68,339,39,76,34,279,27,84,31,063,18*61
$GLGSV,3,3,10,85,21,123,28,,,,36*55
$GNGLL,4713.40128,N,00849.09386,E,125419.00,A,A*72
$GNRMC,125420.00,A,4713.40130,N,00849.09387,E,0.010,,020319,,,A*61
$GNVTG,,T,,M,0.010,N,0.019,K,A*34
$GNGGA,125420.00,4713.40130,N,00849.09387,E,1,12,0.88,446.7,M,47.4,M,,*40
$GNGSA,A,3,24,15,19,12,17,13,10,20,,,,,1.66,0.88,1.41*17
$GNGSA,A,3,75,66,65,76,85,,,,,,,,1.66,0.88,1.41*14
$GPGSV,3,1,10,01,02,021,,10,19,300,44,12,41,231,49,13,28,153,19*7C
$GPGSV,3,2,10,15,51,190,48,17,37,065,46,19,44,101,45,20,15,272,29*7D
$GPGSV,3,3,10,24,73,307,46,25,07,235,25*7F
$GLGSV,3,1,10,65,40,226,31,66,38,311,39,67,00,346,,72,09,190,19*6B
$GLGSV,3,2,10,74,31,062,30,75,68,339,39,76,34,279,27,84,31,062,17*6F
$GLGSV,3,3,10,85,21,123,28,,,,36*55
$GNGLL,4713.40130,N,00849.09387,E,125420.00,A,A*70
$GNRMC,125421.00,A,4713.40130,N,00849.09389,E,0.013,,020319,,,A*6D
$GNVTG,,T,,M,0.013,N,0.025,K,A*38
$GNGGA,125421.00,4713.40130,N,00849.09389,E,1,12,0.88,446.6,M,47.4,M,,*4E
$GNGSA,A,3,24,15,19,12,17,13,10,20,,,,,1.66,0.88,1.41*17
$GNGSA,A,3,75,66,65,76,85,,,,,,,,1.66,0.88,1.41*14
$GPGSV,3,1,11,01,02,021,,04,,,23,10,19,300,44,12,41,231,49*4F
$GPGSV,3,2,11,13,28,153,20,15,51,190,48,17,37,065,46,19,44,101,45*7B
$GPGSV,3,3,11,20,15,272,30,24,73,307,46,25,07,235,25*4C
$GLGSV,3,1,10,65,40,226,31,66,38,311,39,67,00,346,,72,09,190,17*65
$GLGSV,3,2,10,74,31,062,31,75,68,339,39,76,34,279,27,84,31,062,15*6C
$GLGSV,3,3,10,85,21,123,29,,,,36*54
$GNGLL,4713.40130,N,00849.09389,E,125421.00,A,A*7F
$GNRMC,125422.00,A,4713.40131,N,00849.09390,E,0.010,,020319,,,A*64
$GNVTG,,T,,M,0.010,N,0.018,K,A*35
$GNGGA,125422.00,4713.40131,N,00849.09390,E,1,12,0.88,446.6,M,47.4,M,,*44
$GNGSA,A,3,24,15,19,12,17,13,10,20,,,,,1.66,0.88,1.41*17
$GNGSA,A,3,75,66,65,76,85,,,,,,,,1.66,0.88,1.41*14
$GPGSV,3,1,10,01,02,021,,10,19,300,44,12,41,231,49,13,28,153,20*76
$GPGSV,3,2,10,15,51,190,48,17,37,065,46,19,44,101,45,20,15,272,30*75
$GPGSV,3,3,10,24,73,307,46,25,07,235,25*7F
$GLGSV,3,1,10,65,40,226,31,66,38,311,39,67,00,346,,72,09,190,17*65
$GLGSV,3,2,10,74,31,062,31,75,68,339,39,76,34,279,27,84,31,062,14*6D
$GLGSV,3,3,10,85,21,123,30,,,,36*5C
$GNGLL,4713.40131,N,00849.09390,E,125422.00,A,A*75
$GNRMC,125423.00,A,4713.40132,N,00849.09392,E,0.020,,020319,,,A*67
$GNVTG,,T,,M,0.020,N,0.037,K,A*3B
$GNGGA,125423.00,4713.40132,N,00849.09392,E,1,12,0.88,446.5,M,47.4,M,,*47
$GNGSA,A,3,24,15,19,12,17,13,10,20,,,,,1.66,0.88,1.41*17
$GNGSA,A,3,75,66,65,76,85,,,,,,,,1.66,0.88,1.41*14
$GPGSV,3,1,10,01,02,021,,10,19,300,44,12,41,231,48,13,28,153,20*77
$GPGSV,3,2,10,15,51,190,48,17,37,065,46,19,44,101,44,20,15,272,31*75
$GPGSV,3,3,10,24,73,307,46,25,07,235,25*7F
$GLGSV,3,1,10,65,40,226,29,66,38,311,39,67,00,346,,72,09,190,18*63
$GLGSV,3,2,10,74,31,062,31,75,68,339,39,76,34,279,27,84,31,062,*68
$GLGSV,3,3,10,85,21,123,30,,,,36*5C
$GNGLL,4713.40132,N,00849.09392,E,125423.00,A,A*75
$GNRMC,125424.00,A,4713.40133,N,00849.09393,E,0.016,,020319,,,A*65
$GNVTG,,T,,M,0.016,N,0.030,K,A*39
$GNGGA,125424.00,4713.40133,N,00849.09393,E,1,12,0.88,446.6,M,47.4,M,,*43
$GNGSA,A,3,24,15,19,12,17,10,20,,,,,,1.66,0.88,1.41*15
$GNGSA,A,3,75,66,65,76,85,,,,,,,,1.66,0.88,1.41*14
$GPGSV,3,1,10,01,02,020,,10,19,300,44,12,41,231,49,13,28,153,*75
$GPGSV,3,2,10,15,51,190,48,17,37,065,46,19,44,101,44,20,15,272,31*75
$GPGSV,3,3,10,24,73,307,45,25,07,235,25*7C
$GLGSV,3,1,10,65,40,226,29,66,38,311,39,67,00,346,,72,09,190,18*63
$GLGSV,3,2,10,74,31,062,30,75,68,339,39,76,34,279,27,84,31,062,*69
$GLGSV,3,3,10,85,21,123,30,,,,36*5C
$GNGLL,4713.40133,N,00849.09393,E,125424.00,A,A*72
$GNRMC,125425.00,A,4713.40133,N,00849.09394,E,0.010,,020319,,,A*65
$GNVTG,,T,,M,0.010,N,0.018,K,A*35
$GNGGA,125425.00,4713.40133,N,00849.09394,E,1,12,0.88,446.6,M,47.4,M,,*45
$GNGSA,A,3,24,15,19,12,17,10,20,25,,,,,1.66,0.88,1.41*12
$GNGSA,A,3,75,66,65,76,85,,,,,,,,1.66,0.88,1.41*14
$GPGSV,3,1,10,01,02,020,,10,19,300,44,12,41,231,49,13,28,153,*75
$GPGSV,3,2,10,15,51,190,47,17,37,065,46,19,44,101,44,20,15,272,31*7A
$GPGSV,3,3,10,24,73,307,46,25,07,235,26*7C
$GLGSV,3,1,10,65,40,226,29,66,38,311,38,67,00,346,,72,09,190,16*6C
$GLGSV,3,2,10,74,31,062,31,75,68,339,40,76,34,279,27,84,31,062,*66
$GLGSV,3,3,10,85,21,123,30,,,,36*5C
$GNGLL,4713.40133,N,00849.09394,E,125425.00,A,A*74
$GNRMC,125426.00,A,4713.40133,N,00849.09396,E,0.016,,020319,,,A*62
$GNVTG,,T,,M,0.016,N,0.029,K,A*31
$GNGGA,125426.00,4713.40133,N,00849.09396,E,1,12,0.88,446.7,M,47.4,M,,*45
$GNGSA,A,3,24,15,19,12,17,10,20,25,,,,,1.66,0.88,1.41*12
$GNGSA,A,3,75,66,65,76,85,,,,,,,,1.66,0.88,1.41*14
$GPGSV,3,1,10,01,02,020,,10,19,300,44,12,41,231,49,13,28,153,*75
$GPGSV,3,2,10,15,51,190,48,17,37,065,45,19,44,101,44,20,15,272,31*76
$GPGSV,3,3,10,24,73,307,46,25,07,235,25*7F
$GLGSV,3,1,10,65,40,226,27,66,38,311,38,67,00,346,,72,09,190,16*62
$GLGSV,3,2,10,74,31,062,31,75,68,339,40,76,34,279,27,84,31,062,*66
$GLGSV,3,3,10,85,21,123,30,,,,36*5C
$GNGLL,4713.40133,N,00849.09396,E,125426.00,A,A*75
$GNRMC,125427.00,A,4713.40132,N,00849.09397,E,0.011,,020319,,,A*64
$GNVTG,,T,,M,0.011,N,0.020,K,A*3F
$GNGGA,125427.00,4713.40132,N,00849.09397,E,1,12,0.88,446.6,M,47.4,M,,*45
$GNGSA,A,3,24,15,19,12,17,10,20,25,,,,,1.66,0.88,1.41*12
$GNGSA,A,3,75,66,65,76,85,,,,,,,,1.66,0.88,1.41*14
$GPGSV,3,1,10,01,02,020,,10,19,300,44,12,41,231,49,13,28,153,*75
$GPGSV,3,2,10,15,51,190,48,17,37,065,46,19,44,101,43,20,15,272,30*73
$GPGSV,3,3,10,24,73,307,46,25,07,235,25*7F
$GLGSV,3,1,11,65,40,226,27,66,38,311,39,67,00,346,,72,09,190,16*62
$GLGSV,3,2,11,74,31,062,31,75,68,339,40,76,34,279,27,83,07,009,*68
$GLGSV,3,3,11,84,31,062,,85,21,123,30,,,,36*67
$GNGLL,4713.40132,N,00849.09397,E,125427.00,A,A*74
$GNRMC,125428.00,A,4713.40130,N,00849.09399,E,0.004,,020319,,,A*63
$GNVTG,,T,,M,0.004,N,0.007,K,A*3E
$GNGGA,125428.00,4713.40130,N,00849.09399,E,1,12,0.88,446.6,M,47.4,M,,*46
$GNGSA,A,3,24,15,19,12,17,10,20,25,,,,,1.66,0.88,1.41*12
$GNGSA,A,3,75,66,65,76,85,,,,,,,,1.66,0.88,1.41*14
$GPGSV,3,1,10,01,02,020,,10,19,300,44,12,41,231,48,13,28,153,*74
$GPGSV,3,2,10,15,51,190,48,17,37,065,46,19,44,101,44,20,15,272,30*74
$GPGSV,3,3,10,24,73,307,45,25,07,235,25*7C
$GLGSV,3,1,11,65,40,226,26,66,38,311,39,67,00,346,,72,09,190,16*63
$GLGSV,3,2,11,74,31,062,30,75,68,339,40,76,34,279,26,83,07,009,32*69
$GLGSV,3,3,11,84,31,062,,85,21,123,30,,,,37*66
$GNGLL,4713.40130,N,00849.09399,E,125428.00,A,A*77
$GNRMC,125429.00,A,4713.40128,N,00849.09401,E,0.006,,020319,,,A*6F
$GNVTG,,T,,M,0.006,N,0.012,K,A*38
$GNGGA,125429.00,4713.40128,N,00849.09401,E,1,12,0.88,446.6,M,47.4,M,,*48
$GNGSA,A,3,24,15,19,12,17,10,20,25,,,,,1.66,0.88,1.41*12
$GNGSA,A,3,75,66,65,76,85,,,,,,,,1.66,0.88,1.41*14
$GPGSV,3,1,10,01,02,020,,10,19,300,44,12,41,231,48,13,28,153,*74
$GPGSV,3,2,10,15,51,190,48,17,37,065,46,19,44,101,44,20,15,272,30*74
$GPGSV,3,3,10,24,73,307,46,25,07,235,25*7F
$GLGSV,3,1,11,65,40,226,25,66,38,311,39,67,00,346,,72,09,190,15*63
$GLGSV,3,2,11,74,31,062,29,75,68,339,40,76,34,279,26,83,07,009,33*60
$GLGSV,3,3,11,84,31,062,,85,21,123,29,,,,37*6E
$GNGLL,4713.40128,N,00849.09401,E,125429.00,A,A*79
$GNRMC,125430.00,A,4713.40125,N,00849.09402,E,0.014,,020319,,,A*6A
$GNVTG,,T,,M,0.014,N,0.025,K,A*3F
$GNGGA,125430.00,4713.40125,N,00849.09402,E,1,12,0.88,446.6,M,47.4,M,,*4E
$GNGSA,A,3,24,15,19,12,17,10,20,25,,,,,1.66,0.88,1.41*12
$GNGSA,A,3,75,66,65,76,85,,,,,,,,1.66,0.88,1.41*14
$GPGSV,3,1,10,01,02,020,,10,19,300,44,12,41,231,48,13,28,153,*74
$GPGSV,3,2,10,15,51,190,48,17,37,065,46,19,44,101,43,20,15,272,30*73
$GPGSV,3,3,10,24,73,307,45,25,07,235,25*7C
$GLGSV,3,1,11,65,40,226,26,66,38,311,39,67,00,346,,72,09,190,14*61
$GLGSV,3,2,11,74,31,062,29,75,68,339,40,76,34,279,25,83,07,009,33*63
$GLGSV,3,3,11,84,31,062,,85,21,123,28,,,,37*6F
$GNGLL,4713.40125,N,00849.09402,E,125430.00,A,A*7F
$GNRMC,125431.00,A,4713.40121,N,00849.09404,E,0.016,,020319,,,A*6B
$GNVTG,,T,,M,0.016,N,0.029,K,A*31
$GNGGA,125431.00,4713.40121,N,00849.09404,E,1,12,0.88,446.6,M,47.4,M,,*4D
$GNGSA,A,3,24,15,19,12,17,10,20,25,,,,,1.66,0.88,1.41*12
$GNGSA,A,3,75,66,65,76,85,,,,,,,,1.66,0.88,1.41*14
$GPGSV,3,1,10,01,02,020,,10,19,300,44,12,41,231,48,13,28,153,*74
$GPGSV,3,2,10,15,51,190,47,17,37,065,46,19,44,101,42,20,15,272,30*7D
$GPGSV,3,3,10,24,73,307,46,25,07,235,25*7F
$GLGSV,3,1,11,65,40,226,26,66,38,311,39,67,00,346,,72,09,190,13*66
$GLGSV,3,2,11,74,31,062,29,75,68,339,40,76,34,279,25,83,07,009,33*63
$GLGSV,3,3,11,84,31,062,,85,21,123,27,,,,38*6F
$GNGLL,4713.40121,N,00849.09404,E,125431.00,A,A*7C
$GNRMC,125432.00,A,4713.40116,N,00849.09405,E,0.027,,020319,,,A*6F
$GNVTG,,T,,M,0.027,N,0.050,K,A*3D
$GNGGA,125432.00,4713.40116,N,00849.09405,E,1,12,0.88,446.6,M,47.4,M,,*4B
$GNGSA,A,3,24,15,19,12,17,10,20,25,,,,,1.66,0.88,1.41*12
$GNGSA,A,3,75,66,65,76,85,,,,,,,,1.66,0.88,1.41*14
$GPGSV,3,1,10,01,02,020,,10,19,300,44,12,41,231,48,13,28,153,*74
$GPGSV,3,2,10,15,51,190,48,17,37,065,46,19,44,101,43,20,15,272,30*73
$GPGSV,3,3,10,24,73,307,46,25,07,235,25*7F
$GLGSV,3,1,11,65,40,226,26,66,38,311,39,67,00,346,,72,09,190,13*66
$GLGSV,3,2,11,74,31,062,28,75,68,339,40,76,34,279,25,83,07,009,32*63
$GLGSV,3,3,11,84,31,062,,85,21,123,26,,,,38*6E
$GNGLL,4713.40116,N,00849.09405,E,125432.00,A,A*7A
$GNRMC,125433.00,A,4713.40112,N,00849.09407,E,0.017,,020319,,,A*6B
$GNVTG,,T,,M,0.017,N,0.031,K,A*39
$GNGGA,125433.00,4713.40112,N,00849.09407,E,1,12,0.88,446.5,M,47.4,M,,*4F
$GNGSA,A,3,24,15,19,12,17,10,20,25,,,,,1.66,0.88,1.41*12
$GNGSA,A,3,75,66,65,76,85,,,,,,,,1.66,0.88,1.41*14
$GPGSV,3,1,10,01,02,020,,10,19,300,44,12,41,231,48,13,27,153,*7B
$GPGSV,3,2,10,15,51,190,48,17,37,065,46,19,44,101,42,20,15,272,30*72
$GPGSV,3,3,10,24,73,307,45,25,07,235,25*7C
$GLGSV,3,1,11,65,40,226,25,66,38,311,39,67,00,346,,72,09,190,14*62
$GLGSV,3,2,11,74,31,062,27,75,68,339,39,76,34,279,25,83,07,009,33*63
$GLGSV,3,3,11,84,31,062,,85,21,123,25,,,,38*6D
$GNGLL,4713.40112,N,00849.09407,E,125433.00,A,A*7D
$GNRMC,125434.00,A,4713.40107,N,00849.09410,E,0.010,,020319,,,A*69
$GNVTG,,T,,M,0.010,N,0.018,K,A*35
$GNGGA,125434.00,4713.40107,N,00849.09410,E,1,12,1.00,446.5,M,47.4,M,,*4B
$GNGSA,A,3,24,15,19,12,17,10,20,25,,,,,1.97,1.00,1.69*17
$GNGSA,A,3,75,66,65,76,85,,,,,,,,1.97,1.00,1.69*11
$GPGSV,3,1,10,01,02,020,,10,19,300,44,12,41,231,48,13,27,153,*7B
$GPGSV,3,2,10,15,51,190,48,17,37,065,46,19,44,101,42,20,15,272,30*72
$GPGSV,3,3,10,24,73,307,45,25,07,235,26*7F
$GLGSV,3,1,11,65,40,226,26,66,38,311,39,67,00,346,,72,09,190,15*60
$GLGSV,3,2,11,74,31,062,26,75,68,339,39,76,34,279,25,83,07,009,33*62
$GLGSV,3,3,11,84,31,062,,85,21,123,23,,,,37*64
$GNGLL,4713.40107,N,00849.09410,E,125434.00,A,A*78
$GNRMC,125435.00,A,4713.40102,N,00849.09413,E,0.010,,020319,,,A*6E
$GNVTG,,T,,M,0.010,N,0.018,K,A*35
$GNGGA,125435.00,4713.40102,N,00849.09413,E,1,12,0.88,446.5,M,47.4,M,,*4D
$GNGSA,A,3,24,15,19,12,17,10,20,25,,,,,1.66,0.88,1.41*12
$GNGSA,A,3,75,66,65,76,85,,,,,,,,1.66,0.88,1.41*14
$GPGSV,3,1,10,01,02,020,,10,19,300,45,12,41,231,48,13,27,153,*7A
$GPGSV,3,2,10,15,51,190,48,17,37,064,46,19,44,101,42,20,15,272,30*73
$GPGSV,3,3,10,24,73,307,45,25,07,235,26*7F
$GLGSV,3,1,11,65,40,226,26,66,38,311,39,67,00,346,,72,09,190,15*60
$GLGSV,3,2,11,74,31,062,27,75,68,339,39,76,34,279,25,83,07,009,34*64
$GLGSV,3,3,11,84,31,062,,85,21,123,23,,,,37*64
$GNGLL,4713.40102,N,00849.09413,E,125435.00,A,A*7F
$GNRMC,125436.00,A,4713.40097,N,00849.09416,E,0.027,,020319,,,A*61
$GNVTG,,T,,M,0.027,N,0.051,K,A*3C
$GNGGA,125436.00,4713.40097,N,00849.09416,E,1,12,1.00,446.5,M,47.4,M,,*47
$GNGSA,A,3,24,15,19,12,17,10,20,25,,,,,1.97,1.00,1.69*17
$GNGSA,A,3,75,66,65,76,85,,,,,,,,1.97,1.00,1.69*11
$GPGSV,3,1,10,01,02,020,,10,19,300,44,12,41,231,48,13,27,153,*7B
$GPGSV,3,2,10,15,51,190,48,17,37,064,46,19,44,100,41,20,15,272,30*71
$GPGSV,3,3,10,24,73,307,45,25,07,235,26*7F
$GLGSV,3,1,11,65,40,226,25,66,38,311,40,67,00,346,,72,09,190,14*6C
$GLGSV,3,2,11,74,31,062,27,75,68,339,40,76,34,279,24,83,07,009,34*6B
$GLGSV,3,3,11,84,31,062,,85,21,123,22,,,,37*65
$GNGLL,4713.40097,N,00849.09416,E,125436.00,A,A*74
$GNRMC,125437.00,A,4713.40091,N,00849.09420,E,0.055,,020319,,,A*66
$GNVTG,,T,,M,0.055,N,0.102,K,A*3E
$GNGGA,125437.00,4713.40091,N,00849.09420,E,1,12,1.00,446.5,M,47.4,M,,*45
$GNGSA,A,3,24,15,19,12,17,10,20,25,,,,,1.96,1.00,1.69*16
$GNGSA,A,3,75,66,65,76,85,,,,,,,,1.96,1.00,1.69*10
$GPGSV,3,1,11,01,02,020,,10,19,300,44,12,41,231,48,13,27,153,*7A
$GPGSV,3,2,11,15,51,190,48,17,37,064,47,19,44,100,41,20,15,271,30*72
$GPGSV,3,3,11,24,73,307,45,25,07,235,26,28,10,052,*42
$GLGSV,3,1,11,65,40,226,25,66,38,311,40,67,00,346,,72,09,190,14*6C
$GLGSV,3,2,11,74,31,062,28,75,68,339,40,76,34,279,23,83,07,009,34*63
$GLGSV,3,3,11,84,31,062,,85,21,123,22,,,,36*64
$GNGLL,4713.40091,N,00849.09420,E,125437.00,A,A*76
$GNRMC,125438.00,A,4713.40085,N,00849.09425,E,0.051,,020319,,,A*6D
$GNVTG,,T,,M,0.051,N,0.095,K,A*35
$GNGGA,125438.00,4713.40085,N,00849.09425,E,1,12,1.00,446.4,M,47.4,M,,*4B
$GNGSA,A,3,24,15,19,12,17,10,20,25,,,,,1.96,1.00,1.69*16
$GNGSA,A,3,75,66,65,76,85,,,,,,,,1.96,1.00,1.69*10
$GPGSV,3,1,11,01,02,020,,10,19,300,44,12,41,231,48,13,27,153,*7A
$GPGSV,3,2,11,15,51,190,49,17,37,064,46,19,44,100,40,20,15,271,30*73
$GPGSV,3,3,11,24,73,307,45,25,07,235,26,28,10,052,*42
$GLGSV,3,1,11,65,40,226,24,66,38,311,39,67,00,346,,72,09,190,12*65
$GLGSV,3,2,11,74,31,062,27,75,68,339,40,76,34,279,22,83,07,009,34*6D
$GLGSV,3,3,11,84,31,062,,85,21,123,21,,,,36*67
$GNGLL,4713.40085,N,00849.09425,E,125438.00,A,A*79
$GNRMC,125439.00,A,4713.40079,N,00849.09431,E,0.029,,020319,,,A*65
$GNVTG,,T,,M,0.029,N,0.055,K,A*36
$GNGGA,125439.00,4713.40079,N,00849.09431,E,1,12,0.92,446.4,M,47.4,M,,*46
$GNGSA,A,3,24,15,19,12,17,10,20,25,,,,,1.68,0.92,1.40*16
$GNGSA,A,3,83,75,66,65,76,85,,,,,,,1.68,0.92,1.40*1B
$GPGSV,3,1,11,01,02,020,,10,19,300,44,12,41,231,48,13,27,153,*7A
$GPGSV,3,2,11,15,51,190,49,17,37,064,46,19,44,100,40,20,15,271,30*73
$GPGSV,3,3,11,24,73,307,45,25,07,235,26,28,10,052,*42
$GLGSV,3,1,10,65,40,226,23,66,38,311,39,67,00,346,,72,09,190,14*65
$GLGSV,3,2,10,74,31,062,27,75,68,339,40,76,34,279,22,83,07,009,34*6C
$GLGSV,3,3,10,84,31,062,,85,21,123,21*63
$GNGLL,4713.40079,N,00849.09431,E,125439.00,A,A*7E
$GNRMC,125440.00,A,4713.40073,N,00849.09436,E,0.013,,020319,,,A*6F
$GNVTG,,T,,M,0.013,N,0.023,K,A*3E
$GNGGA,125440.00,4713.40073,N,00849.09436,E,1,12,0.92,446.3,M,47.4,M,,*42
$GNGSA,A,3,24,15,19,12,17,10,20,25,,,,,1.68,0.92,1.40*16
$GNGSA,A,3,83,75,66,65,76,85,,,,,,,1.68,0.92,1.40*1B
$GPGSV,3,1,11,01,02,020,,10,19,300,43,12,41,231,48,13,27,153,*7D
$GPGSV,3,2,11,15,51,190,48,17,37,064,47,19,44,100,40,20,15,271,30*73
$GPGSV,3,3,11,24,73,307,45,25,07,235,26,28,10,052,*42
$GLGSV,3,1,10,65,40,226,22,66,38,311,40,67,00,346,,72,09,190,15*6B
$GLGSV,3,2,10,74,31,062,27,75,68,339,40,76,34,279,23,83,07,009,34*6D
$GLGSV,3,3,10,84,31,062,,85,21,123,21*63
$GNGLL,4713.40073,N,00849.09436,E,125440.00,A,A*7D
$GNRMC,125441.00,A,4713.40068,N,00849.09441,E,0.008,,020319,,,A*6E
$GNVTG,,T,,M,0.008,N,0.015,K,A*31
$GNGGA,125441.00,4713.40068,N,00849.09441,E,1,12,0.92,446.3,M,47.4,M,,*49
$GNGSA,A,3,24,15,19,12,17,10,20,25,,,,,1.67,0.92,1.40*19
$GNGSA,A,3,83,75,66,65,76,85,,,,,,,1.67,0.92,1.40*14
$GPGSV,3,1,11,01,02,020,,10,19,300,43,12,41,231,48,13,27,153,*7D
$GPGSV,3,2,11,15,51,190,48,17,37,064,47,19,44,100,41,20,15,271,29*7A
$GPGSV,3,3,11,24,73,307,45,25,07,235,26,28,10,052,*42
$GLGSV,3,1,10,65,40,226,22,66,38,311,40,67,00,346,,72,09,190,16*68
$GLGSV,3,2,10,74,31,062,27,75,68,339,39,76,34,279,22,83,07,009,34*62
$GLGSV,3,3,10,84,31,062,,85,21,123,20*62
$GNGLL,4713.40068,N,00849.09441,E,125441.00,A,A*76
$GNRMC,125442.00,A,4713.40064,N,00849.09446,E,0.003,,020319,,,A*6D
$GNVTG,,T,,M,0.003,N,0.006,K,A*38
$GNGGA,125442.00,4713.40064,N,00849.09446,E,1,12,0.92,446.3,M,47.4,M,,*41
$GNGSA,A,3,24,15,19,12,17,10,20,25,,,,,1.67,0.92,1.40*19
$GNGSA,A,3,83,75,66,65,76,85,,,,,,,1.67,0.92,1.40*14
$GPGSV,3,1,12,01,02,020,,10,19,300,43,12,41,231,48,13,27,153,*7E
$GPGSV,3,2,12,14,,,30,15,51,190,48,17,37,064,47,19,44,100,41*46
$GPGSV,3,3,12,20,15,271,29,24,73,307,45,25,07,235,27,28,10,052,*79
$GLGSV,3,1,10,65,40,226,22,66,38,311,40,67,00,346,,72,09,190,17*69
$GLGSV,3,2,10,74,31,062,28,75,68,339,39,76,34,279,23,83,07,009,34*6C
$GLGSV,3,3,10,84,31,062,,85,21,123,20*62
$GNGLL,4713.40064,N,00849.09446,E,125442.00,A,A*7E
$GNRMC,125443.00,A,4713.40059,N,00849.09452,E,0.005,,020319,,,A*61
$GNVTG,,T,,M,0.005,N,0.010,K,A*39
$GNGGA,125443.00,4713.40059,N,00849.09452,E,1,12,0.98,446.3,M,47.4,M,,*41
$GNGSA,A,3,24,15,19,12,17,10,20,25,,,,,1.72,0.98,1.41*16
$GNGSA,A,3,83,75,66,65,76,85,,,,,,,1.72,0.98,1.41*1B
$GPGSV,3,1,11,01,02,020,,10,19,300,42,12,41,231,48,13,27,153,*7C
$GPGSV,3,2,11,15,51,190,49,17,37,064,47,19,44,100,41,20,15,271,29*7B
$GPGSV,3,3,11,24,73,307,45,25,07,235,27,28,10,052,*43
$GLGSV,3,1,10,65,40,226,22,66,38,311,40,67,00,346,,72,09,190,18*66
$GLGSV,3,2,10,74,31,062,28,75,68,339,39,76,34,279,24,83,07,009,34*6B
$GLGSV,3,3,10,84,31,062,,85,21,123,21*63
$GNGLL,4713.40059,N,00849.09452,E,125443.00,A,A*74
$GNRMC,125444.00,A,4713.40056,N,00849.09457,E,0.021,,020319,,,A*6A
$GNVTG,,T,,M,0.021,N,0.038,K,A*35
$GNGGA,125444.00,4713.40056,N,00849.09457,E,1,12,0.83,446.2,M,47.4,M,,*47
$GNGSA,A,3,24,15,19,12,17,10,20,25,,,,,1.47,0.83,1.22*1F
$GNGSA,A,3,83,75,66,65,76,85,,,,,,,1.47,0.83,1.22*12
$GPGSV,3,1,11,01,02,020,,10,19,300,42,12,41,231,48,13,27,153,*7C
$GPGSV,3,2,11,15,51,190,49,17,37,064,47,19,44,100,41,20,15,271,28*7A
$GPGSV,3,3,11,24,73,307,45,25,07,235,27,28,10,052,*43
$GLGSV,3,1,10,65,40,226,23,66,38,311,40,67,00,346,,72,09,190,19*66
$GLGSV,3,2,10,74,31,062,28,75,68,339,39,76,34,279,26,83,07,009,34*69
$GLGSV,3,3,10,84,31,062,,85,21,123,23*61
$GNGLL,4713.40056,N,00849.09457,E,125444.00,A,A*79
$GNRMC,125445.00,A,4713.40053,N,00849.09462,E,0.002,,020319,,,A*69
$GNVTG,,T,,M,0.002,N,0.003,K,A*3C
$GNGGA,125445.00,4713.40053,N,00849.09462,E,1,12,0.75,446.2,M,47.4,M,,*4C
$GNGSA,A,3,24,15,19,12,17,10,20,25,,,,,1.30,0.75,1.06*10
$GNGSA,A,3,83,75,66,65,76,85,,,,,,,1.30,0.75,1.06*1D
$GPGSV,3,1,11,01,02,020,,10,19,300,42,12,41,231,48,13,27,153,*7C
$GPGSV,3,2,11,15,51,190,49,17,37,064,47,19,44,100,43,20,15,271,28*78
$GPGSV,3,3,11,24,73,307,45,25,07,235,27,28,10,052,*43
$GLGSV,3,1,10,65,40,226,25,66,38,311,41,67,00,346,,72,09,190,19*61
$GLGSV,3,2,10,74,31,062,29,75,68,339,40,76,34,279,27,83,07,009,35*66
$GLGSV,3,3,10,84,31,062,,85,21,123,23*61
$GNGLL,4713.40053,N,00849.09462,E,125445.00,A,A*7B
$GNRMC,125446.00,A,4713.40051,N,00849.09466,E,0.007,,020319,,,A*69
$GNVTG,,T,,M,0.007,N,0.013,K,A*38
$GNGGA,125446.00,4713.40051,N,00849.09466,E,1,12,0.73,446.2,M,47.4,M,,*4F
$GNGSA,A,3,24,15,19,12,17,10,20,25,,,,,1.28,0.73,1.06*1F
$GNGSA,A,3,83,75,66,65,76,85,,,,,,,1.28,0.73,1.06*12
$GPGSV,3,1,11,01,02,020,,10,19,300,40,12,41,231,48,13,27,153,*7E
$GPGSV,3,2,11,15,51,190,49,17,37,064,47,19,44,100,43,20,15,271,28*78
$GPGSV,3,3,11,24,73,307,45,25,07,235,27,28,10,052,*43
$GLGSV,3,1,10,65,40,226,27,66,38,311,41,67,00,346,,72,09,190,21*68
$GLGSV,3,2,10,74,31,062,29,75,68,339,40,76,34,279,28,83,07,009,34*68
$GLGSV,3,3,10,84,31,062,,85,21,123,24*66
$GNGLL,4713.40051,N,00849.09466,E,125446.00,A,A*7E
$GNRMC,125447.00,A,4713.40049,N,00849.09468,E,0.008,,020319,,,A*60
$GNVTG,,T,,M,0.008,N,0.016,K,A*32
$GNGGA,125447.00,4713.40049,N,00849.09468,E,1,12,0.73,446.3,M,47.4,M,,*48
$GNGSA,A,3,24,15,19,12,17,10,20,25,,,,,1.28,0.73,1.06*1F
$GNGSA,A,3,83,75,66,65,76,85,,,,,,,1.28,0.73,1.06*12
$GPGSV,3,1,11,01,02,020,,10,19,300,41,12,41,231,48,13,27,153,*7F
$GPGSV,3,2,11,15,51,190,48,17,37,064,47,19,44,100,40,20,15,271,28*7A
$GPGSV,3,3,11,24,73,307,46,25,07,235,26,28,10,052,*41
$GLGSV,3,1,10,65,40,226,26,66,38,311,41,67,00,346,,72,09,190,20*68
$GLGSV,3,2,10,74,31,062,29,75,68,339,40,76,34,279,28,83,07,009,34*68
$GLGSV,3,3,10,84,31,062,,85,21,123,25*67
$GNGLL,4713.40049,N,00849.09468,E,125447.00,A,A*78
$GNRMC,125448.00,A,4713.40046,N,00849.09471,E,0.022,,020319,,,A*60
$GNVTG,,T,,M,0.022,N,0.041,K,A*38
$GNGGA,125448.00,4713.40046,N,00849.09471,E,1,12,0.73,446.3,M,47.4,M,,*40
$GNGSA,A,3,24,15,19,12,17,10,20,25,,,,,1.28,0.73,1.06*1F
$GNGSA,A,3,83,75,66,65,76,85,,,,,,,1.28,0.73,1.06*12
$GPGSV,3,1,11,01,02,020,,10,19,300,39,12,41,231,49,13,27,153,*71
$GPGSV,3,2,11,15,51,190,48,17,37,064,46,19,44,100,41,20,15,271,27*75
$GPGSV,3,3,11,24,73,307,45,25,07,235,26,28,10,052,*42
$GLGSV,3,1,11,65,40,226,27,66,38,311,40,67,00,346,,72,09,190,19*63
$GLGSV,3,2,11,74,31,062,30,75,68,339,40,76,34,279,29,83,07,009,34*60
$GLGSV,3,3,11,84,31,062,,85,21,123,26,,,,35*63
$GNGLL,4713.40046,N,00849.09471,E,125448.00,A,A*70
$GNRMC,125449.00,A,4713.40044,N,00849.09473,E,0.006,,020319,,,A*67
$GNVTG,,T,,M,0.006,N,0.012,K,A*38
$GNGGA,125449.00,4713.40044,N,00849.09473,E,1,12,0.75,446.3,M,47.4,M,,*47
$GNGSA,A,3,24,15,19,12,17,10,20,25,,,,,1.30,0.75,1.06*10
$GNGSA,A,3,83,75,66,65,76,85,,,,,,,1.30,0.75,1.06*1D
$GPGSV,3,1,11,01,02,020,,10,19,300,40,12,41,231,49,13,27,153,*7F
$GPGSV,3,2,11,15,51,190,48,17,37,064,47,19,44,100,41,20,15,271,27*74
$GPGSV,3,3,11,24,73,307,46,25,07,235,26,28,10,052,*41
$GLGSV,3,1,11,65,40,226,26,66,38,311,40,67,00,346,,72,09,190,18*63
$GLGSV,3,2,11,74,31,062,29,75,68,339,41,76,34,279,29,83,07,009,34*69
$GLGSV,3,3,11,84,31,062,,85,21,123,27,,,,38*6F
$GNGLL,4713.40044,N,00849.09473,E,125449.00,A,A*71
$GNRMC,125450.00,A,4713.40041,N,00849.09477,E,0.034,,020319,,,A*6F
$GNVTG,,T,,M,0.034,N,0.062,K,A*3E
$GNGGA,125450.00,4713.40041,N,00849.09477,E,1,12,0.77,446.3,M,47.4,M,,*4C
$GNGSA,A,3,24,15,19,12,17,10,25,,,,,,1.34,0.77,1.10*13
$GNGSA,A,3,83,75,66,65,76,85,,,,,,,1.34,0.77,1.10*1C
$GPGSV,3,1,11,01,02,020,,10,19,300,40,12,41,231,48,13,27,153,*7E
$GPGSV,3,2,11,15,51,190,48,17,37,064,46,19,44,100,40,20,15,271,*71
$GPGSV,3,3,11,24,73,307,45,25,07,235,25,28,10,052,*41
$GLGSV,3,1,11,65,40,226,25,66,38,311,40,67,00,346,,72,09,190,19*61
$GLGSV,3,2,11,74,31,062,29,75,68,339,40,76,34,279,29,83,07,009,34*68
$GLGSV,3,3,11,84,31,062,,85,21,123,28,,,,38*60
$GNGLL,4713.40041,N,00849.09477,E,125450.00,A,A*78
$GNRMC,125451.00,A,4713.40039,N,00849.09481,E,0.011,,020319,,,A*6F
$GNVTG,,T,,M,0.011,N,0.021,K,A*3E
$GNGGA,125451.00,4713.40039,N,00849.09481,E,1,12,0.77,446.2,M,47.4,M,,*4A
$GNGSA,A,3,24,15,19,12,17,10,25,,,,,,1.34,0.77,1.10*13
$GNGSA,A,3,83,75,66,65,76,85,,,,,,,1.34,0.77,1.10*1C
$GPGSV,3,1,11,01,02,020,,10,19,300,39,12,41,231,48,13,27,153,*70
$GPGSV,3,2,11,15,51,190,49,17,37,064,47,19,44,100,40,20,15,271,*71
$GPGSV,3,3,11,24,73,307,45,25,07,235,26,28,10,052,*42
$GLGSV,3,1,11,65,40,226,25,66,38,311,39,67,00,346,,72,09,190,19*6F
$GLGSV,3,2,11,74,31,062,29,75,68,339,38,76,34,279,29,83,07,009,33*60
$GLGSV,3,3,11,84,31,062,,85,21,123,28,,,,35*6D
$GNGLL,4713.40039,N,00849.09481,E,125451.00,A,A*7F
$GNRMC,125452.00,A,4713.40035,N,00849.09486,E,0.028,,020319,,,A*6D
$GNVTG,,T,,M,0.028,N,0.051,K,A*33
$GNGGA,125452.00,4713.40035,N,00849.09486,E,1,12,0.77,446.1,M,47.4,M,,*41
$GNGSA,A,3,24,15,19,12,17,10,25,,,,,,1.34,0.77,1.10*13
$GNGSA,A,3,83,75,66,65,76,85,,,,,,,1.34,0.77,1.10*1C
$GPGSV,3,1,11,01,02,020,,10,19,300,37,12,41,231,48,13,27,153,*7E
$GPGSV,3,2,11,15,51,190,49,17,37,064,47,19,44,100,41,20,15,271,*70
$GPGSV,3,3,11,24,73,307,47,25,07,235,26,28,10,052,*40
$GLGSV,3,1,11,65,40,226,26,66,38,311,38,67,00,346,,72,09,190,18*6C
$GLGSV,3,2,11,74,31,062,29,75,68,339,41,76,34,279,30,83,07,009,34*61
$GLGSV,3,3,11,84,31,062,26,85,21,123,28,,,,36*6A
$GNGLL,4713.40035,N,00849.09486,E,125452.00,A,A*77
$GNRMC,125453.00,A,4713.40034,N,00849.09492,E,0.055,,020319,,,A*62
$GNVTG,,T,,M,0.055,N,0.102,K,A*3E
$GNGGA,125453.00,4713.40034,N,00849.09492,E,1,12,0.74,446.0,M,47.4,M,,*46
$GNGSA,A,3,24,15,19,12,17,10,25,,,,,,1.32,0.74,1.10*16
$GNGSA,A,3,83,75,66,65,76,85,,,,,,,1.32,0.74,1.10*19
$GPGSV,3,1,11,01,02,020,,10,19,300,38,12,41,231,47,13,27,153,*7E
$GPGSV,3,2,11,15,51,190,49,17,37,064,48,19,44,100,42,20,15,271,*7C
$GPGSV,3,3,11,24,73,307,46,25,07,235,26,28,10,052,*41
$GLGSV,3,1,11,65,40,226,27,66,38,311,38,67,00,346,,72,09,190,17*62
$GLGSV,3,2,11,74,31,062,26,75,68,339,41,76,34,279,31,83,07,009,33*68
$GLGSV,3,3,11,84,31,062,24,85,21,123,29,,,,35*6A
$GNGLL,4713.40034,N,00849.09492,E,125453.00,A,A*72
$GNRMC,125454.00,A,4713.40033,N,00849.09496,E,0.020,,020319,,,A*64
$GNVTG,,T,,M,0.020,N,0.037,K,A*3B
$GNGGA,125454.00,4713.40033,N,00849.09496,E,1,12,0.74,445.9,M,47.4,M,,*48
$GNGSA,A,3,24,15,19,12,17,10,25,,,,,,1.32,0.74,1.10*16
$GNGSA,A,3,83,75,66,65,76,85,,,,,,,1.32,0.74,1.10*19
$GPGSV,3,1,11,01,02,020,,10,19,300,38,12,41,231,46,13,27,153,*7F
$GPGSV,3,2,11,15,51,190,50,17,37,064,46,19,44,100,41,20,15,271,*79
$GPGSV,3,3,11,24,73,307,47,25,07,235,25,28,10,052,*43
$GLGSV,3,1,11,65,40,226,28,66,38,311,38,67,00,346,,72,09,190,14*6E
$GLGSV,3,2,11,74,31,062,25,75,68,339,41,76,34,279,31,83,07,009,34*6C
$GLGSV,3,3,11,84,31,062,24,85,21,123,29,,,,35*6A
$GNGLL,4713.40033,N,00849.09496,E,125454.00,A,A*76
$GNRMC,125455.00,A,4713.40033,N,00849.09500,E,0.006,,020319,,,A*6F
$GNVTG,,T,,M,0.006,N,0.012,K,A*38
$GNGGA,125455.00,4713.40033,N,00849.09500,E,1,12,0.74,445.9,M,47.4,M,,*47
$GNGSA,A,3,24,15,19,12,17,10,25,,,,,,1.32,0.74,1.10*16
$GNGSA,A,3,83,75,66,65,76,85,,,,,,,1.32,0.74,1.10*19
$GPGSV,3,1,11,01,02,020,,10,19,300,37,12,41,231,46,13,27,153,*70
$GPGSV,3,2,11,15,51,190,50,17,37,064,47,19,44,100,41,20,15,271,*78
$GPGSV,3,3,11,24,73,307,47,25,07,235,25,28,10,052,*43
$GLGSV,3,1,11,65,40,226,29,66,38,311,39,67,00,346,,72,09,190,14*6E
$GLGSV,3,2,11,74,31,062,30,75,68,339,41,76,34,279,30,83,07,009,33*6E
$GLGSV,3,3,11,84,31,062,26,85,21,123,29,,,,35*68
$GNGLL,4713.40033,N,00849.09500,E,125455.00,A,A*79
$GNRMC,125456.00,A,4713.40032,N,00849.09505,E,0.009,,020319,,,A*67
$GNVTG,,T,,M,0.009,N,0.016,K,A*33
$GNGGA,125456.00,4713.40032,N,00849.09505,E,1,12,0.74,445.8,M,47.4,M,,*41
$GNGSA,A,3,24,15,19,12,17,10,25,,,,,,1.32,0.74,1.10*16
$GNGSA,A,3,83,75,66,65,76,85,,,,,,,1.32,0.74,1.10*19
$GPGSV,3,1,11,01,02,020,,10,19,300,37,12,41,231,48,13,27,153,*7E
$GPGSV,3,2,11,15,51,190,49,17,37,064,47,19,44,100,41,20,15,271,*70
$GPGSV,3,3,11,24,73,307,47,25,07,235,25,28,10,052,*43
$GLGSV,3,1,11,65,40,226,31,66,38,311,39,67,00,346,,72,09,190,14*67
$GLGSV,3,2,11,74,31,062,29,75,68,339,41,76,34,279,31,83,07,009,33*67
$GLGSV,3,3,11,84,31,062,25,85,21,123,29,,,,35*6B
$GNGLL,4713.40032,N,00849.09505,E,125456.00,A,A*7E
$GNRMC,125457.00,A,4713.40033,N,00849.09508,E,0.022,,020319,,,A*63
$GNVTG,,T,,M,0.022,N,0.040,K,A*39
$GNGGA,125457.00,4713.40033,N,00849.09508,E,1,12,0.74,445.8,M,47.4,M,,*4C
$GNGSA,A,3,24,15,19,12,17,10,25,,,,,,1.32,0.74,1.10*16
$GNGSA,A,3,83,75,66,65,76,85,,,,,,,1.32,0.74,1.10*19
$GPGSV,3,1,11,01,02,020,,10,19,300,37,12,41,231,47,13,27,153,*71
$GPGSV,3,2,11,15,51,190,50,17,37,064,47,19,44,100,41,20,15,271,*78
$GPGSV,3,3,11,24,73,307,47,25,07,235,25,28,10,052,*43
$GLGSV,3,1,11,65,40,226,31,66,38,311,39,67,00,346,,72,09,190,17*64
$GLGSV,3,2,11,74,31,062,29,75,68,339,41,76,34,279,31,83,07,009,33*67
$GLGSV,3,3,11,84,31,062,24,85,21,123,29,,,,36*69
$GNGLL,4713.40033,N,00849.09508,E,125457.00,A,A*73
$GNRMC,125458.00,A,4713.40034,N,00849.09513,E,0.018,,020319,,,A*68
$GNVTG,,T,,M,0.018,N,0.034,K,A*33
$GNGGA,125458.00,4713.40034,N,00849.09513,E,1,12,0.74,445.8,M,47.4,M,,*4E
$GNGSA,A,3,24,15,19,12,17,10,25,,,,,,1.32,0.74,1.10*16
$GNGSA,A,3,83,75,66,65,76,85,,,,,,,1.32,0.74,1.10*19
$GPGSV,3,1,11,01,02,020,,10,19,300,37,12,41,231,47,13,27,153,*71
$GPGSV,3,2,11,15,51,190,50,17,37,064,48,19,44,100,41,20,15,271,*77
$GPGSV,3,3,11,24,73,307,47,25,07,235,24,28,10,052,*42
$GLGSV,3,1,11,65,39,225,31,66,38,311,39,67,00,346,,72,09,190,18*66
$GLGSV,3,2,11,74,31,062,30,75,68,339,41,76,34,279,31,83,07,009,33*6F
$GLGSV,3,3,11,84,31,062,25,85,21,123,29,,,,35*6B
$GNGLL,4713.40034,N,00849.09513,E,125458.00,A,A*71
$GNRMC,125459.00,A,4713.40034,N,00849.09518,E,0.010,,020319,,,A*6A
$GNVTG,,T,,M,0.010,N,0.019,K,A*34
$GNGGA,125459.00,4713.40034,N,00849.09518,E,1,12,0.74,445.7,M,47.4,M,,*4B
$GNGSA,A,3,24,15,19,12,17,10,25,,,,,,1.32,0.74,1.10*16
$GNGSA,A,3,83,75,66,65,76,85,,,,,,,1.32,0.74,1.10*19
$GPGSV,3,1,11,01,02,020,,10,19,300,37,12,41,231,47,13,27,153,*71
$GPGSV,3,2,11,15,51,190,50,17,37,064,48,19,44,100,40,20,15,271,*76
$GPGSV,3,3,11,24,73,307,47,25,07,235,24,28,10,052,*42
$GLGSV,3,1,11,65,39,225,31,66,38,311,39,67,00,346,,72,09,190,18*66
$GLGSV,3,2,11,74,31,062,30,75,68,339,41,76,34,279,31,83,07,009,32*6E
$GLGSV,3,3,11,84,31,062,26,85,21,123,29,,,,35*68
$GNGLL,4713.40034,N,00849.09518,E,125459.00,A,A*7B
$GNRMC,125500.00,A,4713.40035,N,00849.09522,E,0.005,,020319,,,A*6B
$GNVTG,,T,,M,0.005,N,0.010,K,A*39
$GNGGA,125500.00,4713.40035,N,00849.09522,E,1,12,0.74,445.6,M,47.4,M,,*4F
$GNGSA,A,3,24,15,19,12,17,10,25,,,,,,1.32,0.74,1.10*16
$GNGSA,A,3,83,75,66,65,76,85,,,,,,,1.32,0.74,1.10*19
$GPGSV,3,1,11,01,02,020,,10,19,300,37,12,41,231,47,13,27,153,*71
$GPGSV,3,2,11,15,51,190,50,17,37,064,47,19,44,100,40,20,15,271,*79
$GPGSV,3,3,11,24,73,307,47,25,07,235,24,28,10,052,*42
$GLGSV,3,1,11,65,39,225,31,66,38,311,39,67,00,346,,72,09,190,18*66
$GLGSV,3,2,11,74,31,062,29,75,68,339,41,76,34,279,31,83,07,009,32*66
$GLGSV,3,3,11,84,31,062,25,85,21,123,29,,,,35*6B
$GNGLL,4713.40035,N,00849.09522,E,125500.00,A,A*7E
$GNRMC,125501.00,A,4713.40035,N,00849.09526,E,0.012,,020319,,,A*68
$GNVTG,,T,,M,0.012,N,0.022,K,A*3E
$GNGGA,125501.00,4713.40035,N,00849.09526,E,1,12,0.77,445.5,M,47.4,M,,*4A
$GNGSA,A,3,24,15,19,12,17,10,25,,,,,,1.34,0.77,1.10*13
$GNGSA,A,3,83,75,66,65,76,85,,,,,,,1.34,0.77,1.10*1C
$GPGSV,3,1,11,01,02,020,,10,19,300,37,12,41,231,47,13,27,153,*71
$GPGSV,3,2,11,15,51,190,50,17,37,064,47,19,44,100,40,20,15,271,*79
$GPGSV,3,3,11,24,73,307,47,25,07,235,23,28,10,052,*45
$GLGSV,3,1,11,65,39,225,31,66,38,311,39,67,00,346,,72,09,190,19*67
$GLGSV,3,2,11,74,31,062,28,75,68,339,41,76,34,279,31,83,07,009,32*67
$GLGSV,3,3,11,84,31,062,26,85,21,123,29,,,,35*68
$GNGLL,4713.40035,N,00849.09526,E,125501.00,A,A*7B
$GNRMC,125502.00,A,4713.40035,N,00849.09529,E,0.015,,020319,,,A*63
$GNVTG,,T,,M,0.015,N,0.028,K,A*33
$GNGGA,125502.00,4713.40035,N,00849.09529,E,1,12,0.81,445.4,M,47.4,M,,*4E
$GNGSA,A,3,24,15,19,12,17,10,25,,,,,,1.57,0.81,1.34*19
$GNGSA,A,3,83,75,66,65,76,85,,,,,,,1.57,0.81,1.34*16
$GPGSV,3,1,11,01,02,020,,10,19,300,36,12,41,231,47,13,27,153,*70
$GPGSV,3,2,11,15,51,190,50,17,37,064,47,19,44,100,40,20,15,271,*79
$GPGSV,3,3,11,24,73,307,47,25,07,235,22,28,10,052,*44
$GLGSV,3,1,11,65,39,225,30,66,38,311,39,67,00,346,,72,09,190,19*66
$GLGSV,3,2,11,74,31,062,29,75,68,339,41,76,34,279,32,83,07,009,32*65
$GLGSV,3,3,11,84,31,062,27,85,21,123,30,,,,35*61
$GNGLL,4713.40035,N,00849.09529,E,125502.00,A,A*77
$GNRMC,125503.00,A,4713.40035,N,00849.09533,E,0.016,,020319,,,A*6A
$GNVTG,,T,,M,0.016,N,0.029,K,A*31
$GNGGA,125503.00,4713.40035,N,00849.09533,E,1,12,0.81,445.2,M,47.4,M,,*42
$GNGSA,A,3,24,15,19,12,17,10,25,,,,,,1.57,0.81,1.34*19
$GNGSA,A,3,83,75,66,65,76,85,,,,,,,1.57,0.81,1.34*16
$GPGSV,3,1,11,01,02,020,,10,19,300,36,12,41,231,47,13,27,153,*70
$GPGSV,3,2,11,15,51,190,50,17,37,064,47,19,44,100,40,20,15,271,*79
$GPGSV,3,3,11,24,73,307,47,25,07,235,22,28,10,052,*44
$GLGSV,3,1,11,65,39,225,30,66,38,311,38,67,00,346,,72,09,190,19*67
$GLGSV,3,2,11,74,31,062,29,75,68,339,41,76,34,279,32,83,07,009,32*65
$GLGSV,3,3,11,84,31,062,27,85,21,123,30,,,,35*61
$GNGLL,4713.40035,N,00849.09533,E,125503.00,A,A*7D
$GNRMC,125504.00,A,4713.40035,N,00849.09536,E,0.010,,020319,,,A*6E
$GNVTG,,T,,M,0.010,N,0.018,K,A*35
$GNGGA,125504.00,4713.40035,N,00849.09536,E,1,12,0.81,445.1,M,47.4,M,,*43
$GNGSA,A,3,24,15,19,12,17,10,25,,,,,,1.57,0.81,1.34*19
$GNGSA,A,3,83,75,66,65,76,85,,,,,,,1.57,0.81,1.34*16
$GPGSV,3,1,11,01,02,020,,10,19,300,36,12,41,231,47,13,27,153,*70
$GPGSV,3,2,11,15,51,190,50,17,37,064,47,19,44,100,40,20,15,271,*79
$GPGSV,3,3,11,24,73,307,47,25,07,235,22,28,10,052,*44
$GLGSV,3,1,11,65,39,225,29,66,38,311,38,67,00,346,,72,09,190,20*65
$GLGSV,3,2,11,74,31,062,29,75,68,339,41,76,34,279,32,83,07,009,32*65
$GLGSV,3,3,11,84,31,062,26,85,21,123,30,,,,34*61
$GNGLL,4713.40035,N,00849.09536,E,125504.00,A,A*7F
$GNRMC,125505.00,A,4713.40035,N,00849.09540,E,0.009,,020319,,,A*66
$GNVTG,,T,,M,0.009,N,0.017,K,A*32
$GNGGA,125505.00,4713.40035,N,00849.09540,E,1,12,0.81,445.0,M,47.4,M,,*42
$GNGSA,A,3,24,15,19,12,17,10,25,,,,,,1.57,0.81,1.34*19
$GNGSA,A,3,83,75,66,65,76,85,,,,,,,1.57,0.81,1.34*16
$GPGSV,3,1,11,01,02,020,,10,19,300,36,12,41,231,47,13,27,153,*70
$GPGSV,3,2,11,15,51,190,50,17,37,064,47,19,44,100,40,20,15,271,*79
$GPGSV,3,3,11,24,73,307,47,25,07,235,21,28,10,052,*47
$GLGSV,3,1,11,65,39,225,30,66,38,311,38,67,00,346,,72,08,190,19*66
$GLGSV,3,2,11,74,31,062,29,75,68,339,41,76,34,279,32,83,07,009,32*65
$GLGSV,3,3,11,84,31,062,26,85,21,123,30,,,,34*61
$GNGLL,4713.40035,N,00849.09540,E,125505.00,A,A*7F
$GNRMC,125506.00,A,4713.40036,N,00849.09542,E,0.004,,020319,,,A*69
$GNVTG,,T,,M,0.004,N,0.007,K,A*3E
$GNGGA,125506.00,4713.40036,N,00849.09542,E,1,12,0.81,444.9,M,47.4,M,,*48
$GNGSA,A,3,24,15,19,12,17,10,25,,,,,,1.57,0.81,1.34*19
$GNGSA,A,3,83,75,66,65,76,85,,,,,,,1.57,0.81,1.34*16
$GPGSV,3,1,11,01,02,020,,10,19,300,36,12,41,231,45,13,27,153,*72
$GPGSV,3,2,11,15,51,190,50,17,37,064,46,19,44,100,39,20,15,271,*76
$GPGSV,3,3,11,24,73,307,47,25,07,235,22,28,10,052,*44
$GLGSV,3,1,11,65,39,225,31,66,38,311,38,67,00,346,,72,08,190,19*67
$GLGSV,3,2,11,74,31,062,28,75,68,339,41,76,34,279,32,83,07,009,32*64
$GLGSV,3,3,11,84,31,062,26,85,21,123,30,,,,34*61
$GNGLL,4713.40036,N,00849.09542,E,125506.00,A,A*7D
$GNRMC,125507.00,A,4713.40038,N,00849.09543,E,0.011,,020319,,,A*63
$GNVTG,,T,,M,0.011,N,0.020,K,A*3F
$GNGGA,125507.00,4713.40038,N,00849.09543,E,1,12,0.81,444.6,M,47.4,M,,*49
$GNGSA,A,3,24,15,19,12,17,10,25,,,,,,1.57,0.81,1.34*19
$GNGSA,A,3,83,75,66,65,76,85,,,,,,,1.57,0.81,1.34*16
$GPGSV,3,1,11,01,02,020,,10,19,300,38,12,41,231,45,13,27,153,*7C
$GPGSV,3,2,11,15,51,190,49,17,37,064,46,19,44,100,40,20,15,271,*70
$GPGSV,3,3,11,24,73,307,46,25,07,235,21,28,10,052,25*41
$GLGSV,3,1,11,65,39,225,32,66,38,311,39,67,00,346,,72,08,190,19*65
$GLGSV,3,2,11,74,31,062,27,75,68,339,40,76,34,279,32,83,07,009,33*6B
$GLGSV,3,3,11,84,31,062,27,85,21,123,30,,,,32*66
$GNGLL,4713.40038,N,00849.09543,E,125507.00,A,A*73
$GNRMC,125508.00,A,4713.40040,N,00849.09540,E,0.025,,020319,,,A*67
$GNVTG,,T,,M,0.025,N,0.047,K,A*39
$GNGGA,125508.00,4713.40040,N,00849.09540,E,1,12,0.81,444.5,M,47.4,M,,*49
$GNGSA,A,3,24,15,19,12,17,10,25,,,,,,1.57,0.81,1.34*19
$GNGSA,A,3,83,75,66,65,76,85,,,,,,,1.57,0.81,1.34*16
$GPGSV,3,1,11,01,02,020,,10,19,300,37,12,41,231,46,13,27,153,*70
$GPGSV,3,2,11,15,51,190,50,17,37,064,46,19,44,100,38,20,15,271,*77
$GPGSV,3,3,11,24,73,307,46,25,07,235,21,28,10,052,*46
$GLGSV,3,1,11,65,39,225,31,66,38,311,37,67,00,346,,72,08,190,20*62
$GLGSV,3,2,11,74,31,062,25,75,68,340,42,76,34,279,31,83,07,009,32*67
$GLGSV,3,3,11,84,31,062,25,85,21,123,31,,,,33*64
$GNGLL,4713.40040,N,00849.09540,E,125508.00,A,A*70
$GNRMC,125509.00,A,4713.40041,N,00849.09538,E,0.018,,020319,,,A*66
$GNVTG,,T,,M,0.018,N,0.034,K,A*33
$GNGGA,125509.00,4713.40041,N,00849.09538,E,1,12,0.81,444.4,M,47.4,M,,*47
$GNGSA,A,3,24,15,19,12,17,10,25,,,,,,1.57,0.81,1.34*19
$GNGSA,A,3,83,75,66,65,76,85,,,,,,,1.57,0.81,1.34*16
$GPGSV,3,1,11,01,02,020,,10,19,300,35,12,41,231,46,13,27,153,*72
$GPGSV,3,2,11,15,51,190,50,17,37,064,47,19,44,100,31,20,15,271,29*74
$GPGSV,3,3,11,24,73,307,48,25,07,235,19,28,10,052,*43
$GLGSV,3,1,10,65,39,225,30,66,38,311,38,67,00,346,,72,08,190,22*6F
$GLGSV,3,2,10,74,31,062,25,75,68,340,40,76,34,279,31,83,07,009,32*64
$GLGSV,3,3,10,84,31,062,25,85,21,123,29*6C
$GNGLL,4713.40041,N,00849.09538,E,125509.00,A,A*7F
$GNRMC,125510.00,A,4713.40042,N,00849.09536,E,0.016,,020319,,,A*6D
$GNVTG,,T,,M,0.016,N,0.030,K,A*39
$GNGGA,125510.00,4713.40042,N,00849.09536,E,1,12,0.81,444.4,M,47.4,M,,*42
$GNGSA,A,3,24,15,19,12,17,10,20,25,,,,,1.56,0.81,1.34*1A
$GNGSA,A,3,83,75,66,65,76,85,,,,,,,1.56,0.81,1.34*17
$GPGSV,3,1,11,01,02,020,,10,19,300,35,12,41,231,45,13,27,153,*71
$GPGSV,3,2,11,15,51,190,50,17,37,064,46,19,44,100,35,20,15,271,29*71
$GPGSV,3,3,11,24,73,307,48,25,07,235,18,28,10,052,*42
$GLGSV,3,1,10,65,39,225,29,66,38,311,39,67,00,346,,72,08,190,23*67
$GLGSV,3,2,10,74,31,062,25,75,68,340,40,76,34,279,31,83,07,009,32*64
$GLGSV,3,3,10,84,31,062,25,85,21,123,30*64
$GNGLL,4713.40042,N,00849.09536,E,125510.00,A,A*7A
$GNRMC,125511.00,A,4713.40043,N,00849.09534,E,0.041,,020319,,,A*6D
$GNVTG,,T,,M,0.041,N,0.077,K,A*38
$GNGGA,125511.00,4713.40043,N,00849.09534,E,1,12,0.81,444.3,M,47.4,M,,*47
$GNGSA,A,3,24,15,19,12,17,10,20,25,,,,,1.56,0.81,1.34*1A
$GNGSA,A,3,83,75,66,65,76,85,,,,,,,1.56,0.81,1.34*17
$GPGSV,3,1,11,01,02,020,,10,19,300,36,12,41,231,45,13,27,153,*72
$GPGSV,3,2,11,15,51,190,49,17,37,064,46,19,44,100,37,20,15,271,28*7A
$GPGSV,3,3,11,24,73,307,47,25,07,235,17,28,10,052,*42
$GLGSV,3,1,10,65,39,225,31,66,38,311,39,67,00,346,,72,08,190,23*6E
$GLGSV,3,2,10,74,31,062,26,75,68,340,40,76,34,279,30,83,07,009,32*66
$GLGSV,3,3,10,84,31,062,25,85,21,123,29*6C
$GNGLL,4713.40043,N,00849.09534,E,125511.00,A,A*78
$GNRMC,125512.00,A,4713.40043,N,00849.09535,E,0.023,,020319,,,A*6B
$GNVTG,,T,,M,0.023,N,0.043,K,A*3B
$GNGGA,125512.00,4713.40043,N,00849.09535,E,1,12,0.81,444.2,M,47.4,M,,*44
$GNGSA,A,3,24,15,19,12,17,10,20,25,,,,,1.56,0.81,1.34*1A
$GNGSA,A,3,83,75,66,65,76,85,,,,,,,1.56,0.81,1.34*17
$GPGSV,3,1,11,01,02,020,,10,19,300,34,12,41,231,44,13,27,153,*71
$GPGSV,3,2,11,15,51,190,50,17,37,064,46,19,44,100,41,20,15,271,27*7C
$GPGSV,3,3,11,24,73,307,47,25,07,235,15,28,10,052,*40
$GLGSV,3,1,10,65,39,225,31,66,38,311,39,67,00,346,,72,08,190,23*6E
$GLGSV,3,2,10,74,31,062,24,75,68,340,41,76,34,279,29,83,07,009,32*6D
$GLGSV,3,3,10,84,31,062,24,85,21,123,29*6D
$GNGLL,4713.40043,N,00849.09535,E,125512.00,A,A*7A
$GNRMC,125513.00,A,4713.40044,N,00849.09534,E,0.004,,020319,,,A*69
$GNVTG,,T,,M,0.004,N,0.008,K,A*31
$GNGGA,125513.00,4713.40044,N,00849.09534,E,1,12,0.81,444.2,M,47.4,M,,*43
$GNGSA,A,3,24,15,19,12,17,10,20,25,,,,,1.56,0.81,1.34*1A
$GNGSA,A,3,83,75,66,65,76,85,,,,,,,1.56,0.81,1.34*17
$GPGSV,3,1,11,01,02,020,,10,19,300,35,12,41,231,45,13,27,153,*71
$GPGSV,3,2,11,15,51,190,50,17,37,064,46,19,44,100,40,20,15,271,28*72
$GPGSV,3,3,11,24,73,307,47,25,07,235,17,28,10,052,*42
$GLGSV,3,1,10,65,39,225,31,66,38,311,38,67,00,346,,72,08,190,22*6E
$GLGSV,3,2,10,74,31,062,20,75,68,340,41,76,34,279,29,83,07,009,32*69
$GLGSV,3,3,10,84,31,062,23,85,21,123,29*6A
$GNGLL,4713.40044,N,00849.09534,E,125513.00,A,A*7D
$GNRMC,125514.00,A,4713.40046,N,00849.09531,E,0.001,,020319,,,A*6C
$GNVTG,,T,,M,0.001,N,0.003,K,A*3F
$GNGGA,125514.00,4713.40046,N,00849.09531,E,1,12,0.78,444.1,M,47.4,M,,*46
$GNGSA,A,3,24,15,19,12,17,10,20,25,,,,,1.44,0.78,1.21*1B
$GNGSA,A,3,83,75,66,65,76,85,,,,,,,1.44,0.78,1.21*16
$GPGSV,3,1,11,01,02,020,,10,19,300,36,12,41,231,45,13,27,153,*72
$GPGSV,3,2,11,15,51,190,50,17,37,064,46,19,44,100,39,20,15,271,28*7C
$GPGSV,3,3,11,24,73,307,47,25,07,235,19,28,10,052,*4C
$GLGSV,3,1,10,65,39,225,31,66,38,311,37,67,00,346,,72,08,190,22*61
$GLGSV,3,2,10,74,31,062,14,75,68,340,41,76,34,279,29,83,07,009,33*6F
$GLGSV,3,3,10,84,31,062,21,85,21,123,28*69
$GNGLL,4713.40046,N,00849.09531,E,125514.00,A,A*7D
$GNRMC,125515.00,A,4713.40048,N,00849.09526,E,0.020,,020319,,,A*66
$GNVTG,,T,,M,0.020,N,0.036,K,A*3A
$GNGGA,125515.00,4713.40048,N,00849.09526,E,1,12,0.78,443.9,M,47.4,M,,*40
$GNGSA,A,3,24,15,19,12,17,10,20,25,,,,,1.44,0.78,1.21*1B
$GNGSA,A,3,83,75,66,65,76,85,,,,,,,1.44,0.78,1.21*16
$GPGSV,3,1,11,01,02,020,,10,19,300,37,12,41,231,44,13,27,153,*72
$GPGSV,3,2,11,15,51,190,49,17,37,064,46,19,44,100,39,20,15,271,29*75
$GPGSV,3,3,11,24,73,307,46,25,07,235,19,28,10,052,*4D
$GLGSV,3,1,10,65,39,225,31,66,38,311,37,67,00,346,,72,08,190,23*60
$GLGSV,3,2,10,74,31,062,,75,68,340,41,76,34,279,28,83,07,009,33*6B
$GLGSV,3,3,10,84,31,062,22,85,21,123,28*6A
$GNGLL,4713.40048,N,00849.09526,E,125515.00,A,A*74
$GNRMC,125516.00,A,4713.40052,N,00849.09519,E,0.023,,020319,,,A*61
$GNVTG,,T,,M,0.023,N,0.042,K,A*3A
